{
  "type": "FeatureCollection",
  "crs": {
    "type": "name",
    "properties": {
      "name": "urn:ogc:def:crs:OGC:1.3:CRS84"
    }
  },
  "features": [
    {
      "type": "Feature",
      "properties": {
        "name": "臺北市大同區環河北路二段(北起敦煌路、南迄酒泉街)",
        "marker-color": "#ffaa22",
        "marker-symbol": "1",
        "line": "crime"
      },
      "geometry": {
        "type": "Point",
        "coordinates": [
          121.509279,25.070475

        ]
      }
    },
    {
      "type": "Feature",
      "properties": {
        "name": "臺北市萬華區康定路、桂林路口",
        "marker-color": "#ffaa22",
        "marker-symbol": "1",
        "line": "crime"
      },
      "geometry": {
        "type": "Point",
        "coordinates": [
          121.501765,25.038405

        ]
      }
    },
    {
      "type": "Feature",
      "properties": {
        "name": "臺北市萬華區艋舺公園",
        "marker-color": "#ffaa22",
        "marker-symbol": "1",
        "line": "crime"
      },
      "geometry": {
        "type": "Point",
        "coordinates": [
          121.499861,25.035978

        ]
      }
    },
    {
      "type": "Feature",
      "properties": {
        "name": "臺北市萬華區西寧南路62號路段",
        "marker-color": "#ffaa22",
        "marker-symbol": "1",
        "line": "crime"
      },
      "geometry": {
        "type": "Point",
        "coordinates": [
          121.506118,25.04381

        ]
      }
    },
    {
      "type": "Feature",
      "properties": {
        "name": "臺北市萬華區峨眉街28號路段",
        "marker-color": "#ffaa22",
        "marker-symbol": "1",
        "line": "crime"
      },
      "geometry": {
        "type": "Point",
        "coordinates": [
          121.506801,25.043492

        ]
      }
    },
    {
      "type": "Feature",
      "properties": {
        "name": "臺北市萬華區昆明街79號路段",
        "marker-color": "#ffaa22",
        "marker-symbol": "1",
        "line": "crime"
      },
      "geometry": {
        "type": "Point",
        "coordinates": [
          121.504996,25.042837

        ]
      }
    },
    {
      "type": "Feature",
      "properties": {
        "name": "臺北市萬華區406廣場(中華路2段及長沙街2段交叉口)",
        "marker-color": "#ffaa22",
        "marker-symbol": "1",
        "line": "crime"
      },
      "geometry": {
        "type": "Point",
        "coordinates": [
          121.497029,25.026286

        ]
      }
    },
    {
      "type": "Feature",
      "properties": {
        "name": "臺北市萬華區西藏路222號路段",
        "marker-color": "#ffaa22",
        "marker-symbol": "1",
        "line": "crime"
      },
      "geometry": {
        "type": "Point",
        "coordinates": [
          121.502272,25.029838

        ]
      }
    },
    {
      "type": "Feature",
      "properties": {
        "name": "臺北市萬華區寶興街80巷10號路段",
        "marker-color": "#ffaa22",
        "marker-symbol": "1",
        "line": "crime"
      },
      "geometry": {
        "type": "Point",
        "coordinates": [
          121.494067,25.02588

        ]
      }
    },
    {
      "type": "Feature",
      "properties": {
        "name": "臺北市萬華區水源路199號內藍球場路段",
        "marker-color": "#ffaa22",
        "marker-symbol": "1",
        "line": "crime"
      },
      "geometry": {
        "type": "Point",
        "coordinates": [
          121.507033,25.022269

        ]
      }
    },
    {
      "type": "Feature",
      "properties": {
        "name": "臺北市萬華區萬大路424巷97號旁三角公園路段",
        "marker-color": "#ffaa22",
        "marker-symbol": "1",
        "line": "crime"
      },
      "geometry": {
        "type": "Point",
        "coordinates": [
          121.495534,25.021103

        ]
      }
    },
    {
      "type": "Feature",
      "properties": {
        "name": "臺北市萬華區萬大路542號路段",
        "marker-color": "#ffaa22",
        "marker-symbol": "1",
        "line": "crime"
      },
      "geometry": {
        "type": "Point",
        "coordinates": [
          121.496481,25.018551

        ]
      }
    },
    {
      "type": "Feature",
      "properties": {
        "name": "臺北市萬華區老松公園",
        "marker-color": "#ffaa22",
        "marker-symbol": "1",
        "line": "crime"
      },
      "geometry": {
        "type": "Point",
        "coordinates": [
          121.50274,25.038372

        ]
      }
    },
    {
      "type": "Feature",
      "properties": {
        "name": "臺北市萬華區和平青草原(原402公園)(艋舺大道、西園路口)",
        "marker-color": "#ffaa22",
        "marker-symbol": "1",
        "line": "crime"
      },
      "geometry": {
        "type": "Point",
        "coordinates": [
          121.497029,25.026286

        ]
      }
    },
    {
      "type": "Feature",
      "properties": {
        "name": "臺北市萬華區南寧路48巷口",
        "marker-color": "#ffaa22",
        "marker-symbol": "1",
        "line": "crime"
      },
      "geometry": {
        "type": "Point",
        "coordinates": [
          121.504797,25.035036

        ]
      }
    },
    {
      "type": "Feature",
      "properties": {
        "name": "臺北市萬華區綠堤公園",
        "marker-color": "#ffaa22",
        "marker-symbol": "1",
        "line": "crime"
      },
      "geometry": {
        "type": "Point",
        "coordinates": [
          121.492661,25.03406

        ]
      }
    },
    {
      "type": "Feature",
      "properties": {
        "name": "臺北市中山區康樂公園",
        "marker-color": "#ffaa22",
        "marker-symbol": "1",
        "line": "crime"
      },
      "geometry": {
        "type": "Point",
        "coordinates": [
          121.524936,25.053086

        ]
      }
    },
    {
      "type": "Feature",
      "properties": {
        "name": "臺北市中山區民權東路1段70巷",
        "marker-color": "#ffaa22",
        "marker-symbol": "1",
        "line": "crime"
      },
      "geometry": {
        "type": "Point",
        "coordinates": [
          121.525037,25.061704

        ]
      }
    },
    {
      "type": "Feature",
      "properties": {
        "name": "臺北市中山區農安街、新生北路口",
        "marker-color": "#ffaa22",
        "marker-symbol": "1",
        "line": "crime"
      },
      "geometry": {
        "type": "Point",
        "coordinates": [
          121.522268,25.064899

        ]
      }
    },
    {
      "type": "Feature",
      "properties": {
        "name": "臺北市中山區松江路(捷運松江、南京站周邊)",
        "marker-color": "#ffaa22",
        "marker-symbol": "1",
        "line": "crime"
      },
      "geometry": {
        "type": "Point",
        "coordinates": [
          121.533073,25.051642

        ]
      }
    },
    {
      "type": "Feature",
      "properties": {
        "name": "臺北市中山區朱崙街(遼寧街至龍江路沿線)",
        "marker-color": "#ffaa22",
        "marker-symbol": "1",
        "line": "crime"
      },
      "geometry": {
        "type": "Point",
        "coordinates": [
          121.540949,25.050838

        ]
      }
    },
    {
      "type": "Feature",
      "properties": {
        "name": "臺北市中山區榮星公園",
        "marker-color": "#ffaa22",
        "marker-symbol": "1",
        "line": "crime"
      },
      "geometry": {
        "type": "Point",
        "coordinates": [
          121.539141,25.063467

        ]
      }
    },
    {
      "type": "Feature",
      "properties": {
        "name": "臺北市中山區濱江國小周邊",
        "marker-color": "#ffaa22",
        "marker-symbol": "1",
        "line": "crime"
      },
      "geometry": {
        "type": "Point",
        "coordinates": [
          121.542709,25.079202

        ]
      }
    },
    {
      "type": "Feature",
      "properties": {
        "name": "臺北市中山區中原街(吉林路236巷及218巷間段)",
        "marker-color": "#ffaa22",
        "marker-symbol": "1",
        "line": "crime"
      },
      "geometry": {
        "type": "Point",
        "coordinates": [
          121.528927,25.059808

        ]
      }
    },
    {
      "type": "Feature",
      "properties": {
        "name": "臺北市大安區建國南路1段63-1號附近(計程車休息站)",
        "marker-color": "#ffaa22",
        "marker-symbol": "1",
        "line": "crime"
      },
      "geometry": {
        "type": "Point",
        "coordinates": [
          121.537,25.0442

        ]
      }
    },
    {
      "type": "Feature",
      "properties": {
        "name": "臺北市大安區臨江街夜市",
        "marker-color": "#ffaa22",
        "marker-symbol": "1",
        "line": "crime"
      },
      "geometry": {
        "type": "Point",
        "coordinates": [
          121.556533,25.028232

        ]
      }
    },
    {
      "type": "Feature",
      "properties": {
        "name": "臺北市中正區中華路1段一帶",
        "marker-color": "#ffaa22",
        "marker-symbol": "1",
        "line": "crime"
      },
      "geometry": {
        "type": "Point",
        "coordinates": [
          121.508723,25.043056

        ]
      }
    },
    {
      "type": "Feature",
      "properties": {
        "name": "臺北市中正區濟南路2段一帶",
        "marker-color": "#ffaa22",
        "marker-symbol": "1",
        "line": "crime"
      },
      "geometry": {
        "type": "Point",
        "coordinates": [
          121.529677,25.04075

        ]
      }
    },
    {
      "type": "Feature",
      "properties": {
        "name": "臺北市中正區忠孝西路1段一帶(臺北火車站地下商店街)",
        "marker-color": "#ffaa22",
        "marker-symbol": "1",
        "line": "crime"
      },
      "geometry": {
        "type": "Point",
        "coordinates": [
          121.515957,25.046651

        ]
      }
    },
    {
      "type": "Feature",
      "properties": {
        "name": "臺北市中正區北平西路1段(捷運臺北站及公車臺北火車站周邊站牌)",
        "marker-color": "#ffaa22",
        "marker-symbol": "1",
        "line": "crime"
      },
      "geometry": {
        "type": "Point",
        "coordinates": [
          121.520353,25.047252

        ]
      }
    },
    {
      "type": "Feature",
      "properties": {
        "name": "臺北市中正區中山南路人行天橋、地下道",
        "marker-color": "#ffaa22",
        "marker-symbol": "1",
        "line": "crime"
      },
      "geometry": {
        "type": "Point",
        "coordinates": [
          121.518202,25.040419

        ]
      }
    },
    {
      "type": "Feature",
      "properties": {
        "name": "臺北市中正區中山南路1段一帶",
        "marker-color": "#ffaa22",
        "marker-symbol": "1",
        "line": "crime"
      },
      "geometry": {
        "type": "Point",
        "coordinates": [
          121.516868,25.03473

        ]
      }
    },
    {
      "type": "Feature",
      "properties": {
        "name": "臺北市中正區林森南路、仁愛路人行地下道",
        "marker-color": "#ffaa22",
        "marker-symbol": "1",
        "line": "crime"
      },
      "geometry": {
        "type": "Point",
        "coordinates": [
          121.521436,25.038504

        ]
      }
    },
    {
      "type": "Feature",
      "properties": {
        "name": "臺北市中正區寶慶路(中華路至桃源街)路段",
        "marker-color": "#ffaa22",
        "marker-symbol": "1",
        "line": "crime"
      },
      "geometry": {
        "type": "Point",
        "coordinates": [
          121.511232,25.041245

        ]
      }
    },
    {
      "type": "Feature",
      "properties": {
        "name": "臺北市中正區捷運公館1號出口",
        "marker-color": "#ffaa22",
        "marker-symbol": "1",
        "line": "crime"
      },
      "geometry": {
        "type": "Point",
        "coordinates": [
          121.53439,25.014483

        ]
      }
    },
    {
      "type": "Feature",
      "properties": {
        "name": "臺北市中正區客家文化園區",
        "marker-color": "#ffaa22",
        "marker-symbol": "1",
        "line": "crime"
      },
      "geometry": {
        "type": "Point",
        "coordinates": [
          121.36,24.941667

        ]
      }
    },
    {
      "type": "Feature",
      "properties": {
        "name": "臺北市中正區辛亥路1段12巷",
        "marker-color": "#ffaa22",
        "marker-symbol": "1",
        "line": "crime"
      },
      "geometry": {
        "type": "Point",
        "coordinates": [
          121.527395,25.019296

        ]
      }
    },
    {
      "type": "Feature",
      "properties": {
        "name": "臺北市中正區南昌路1段24巷內",
        "marker-color": "#ffaa22",
        "marker-symbol": "1",
        "line": "crime"
      },
      "geometry": {
        "type": "Point",
        "coordinates": [
          121.565427,25.032964

        ]
      }
    },
    {
      "type": "Feature",
      "properties": {
        "name": "臺北市中正區羅斯福路2段66巷",
        "marker-color": "#ffaa22",
        "marker-symbol": "1",
        "line": "crime"
      },
      "geometry": {
        "type": "Point",
        "coordinates": [
          121.521277,25.027423

        ]
      }
    },
    {
      "type": "Feature",
      "properties": {
        "name": "臺北市中正區和平西路、南昌路(南昌公園)",
        "marker-color": "#ffaa22",
        "marker-symbol": "1",
        "line": "crime"
      },
      "geometry": {
        "type": "Point",
        "coordinates": [
          121.51645,25.031077

        ]
      }
    },
    {
      "type": "Feature",
      "properties": {
        "name": "臺北市中正區南海路105號國盛國宅一帶",
        "marker-color": "#ffaa22",
        "marker-symbol": "1",
        "line": "crime"
      },
      "geometry": {
        "type": "Point",
        "coordinates": [
          121.507484,25.027592

        ]
      }
    },
    {
      "type": "Feature",
      "properties": {
        "name": "臺北市中正區寧波西街181巷內永寬公園",
        "marker-color": "#ffaa22",
        "marker-symbol": "1",
        "line": "crime"
      },
      "geometry": {
        "type": "Point",
        "coordinates": [
          121.510311,25.026517

        ]
      }
    },
    {
      "type": "Feature",
      "properties": {
        "name": "臺北市中正區廈門街至和平西路一帶",
        "marker-color": "#ffaa22",
        "marker-symbol": "1",
        "line": "crime"
      },
      "geometry": {
        "type": "Point",
        "coordinates": [
          121.565427,25.032964

        ]
      }
    },
    {
      "type": "Feature",
      "properties": {
        "name": "臺北市中正區延平南路一帶商家(和平西路愛國西路)",
        "marker-color": "#ffaa22",
        "marker-symbol": "1",
        "line": "crime"
      },
      "geometry": {
        "type": "Point",
        "coordinates": [
          121.508891,25.039716

        ]
      }
    },
    {
      "type": "Feature",
      "properties": {
        "name": "臺北市中正區寧波西街(泉州街至重慶南路)",
        "marker-color": "#ffaa22",
        "marker-symbol": "1",
        "line": "crime"
      },
      "geometry": {
        "type": "Point",
        "coordinates": [
          121.514214,25.02955

        ]
      }
    },
    {
      "type": "Feature",
      "properties": {
        "name": "臺北市松山區八德路4段106巷附近",
        "marker-color": "#ffaa22",
        "marker-symbol": "1",
        "line": "crime"
      },
      "geometry": {
        "type": "Point",
        "coordinates": [
          121.561073,25.047582

        ]
      }
    },
    {
      "type": "Feature",
      "properties": {
        "name": "臺北市松山區健康路325巷25弄附近",
        "marker-color": "#ffaa22",
        "marker-symbol": "1",
        "line": "crime"
      },
      "geometry": {
        "type": "Point",
        "coordinates": [
          121.566379,25.05644

        ]
      }
    },
    {
      "type": "Feature",
      "properties": {
        "name": "臺北市松山區松河街4號水門內",
        "marker-color": "#ffaa22",
        "marker-symbol": "1",
        "line": "crime"
      },
      "geometry": {
        "type": "Point",
        "coordinates": [
          121.571857,25.050903

        ]
      }
    },
    {
      "type": "Feature",
      "properties": {
        "name": "臺北市松山區松河街80幾號附近",
        "marker-color": "#ffaa22",
        "marker-symbol": "1",
        "line": "crime"
      },
      "geometry": {
        "type": "Point",
        "coordinates": [
          121.574675,25.050936

        ]
      }
    },
    {
      "type": "Feature",
      "properties": {
        "name": "臺北市松山區復興北路10幾號附近",
        "marker-color": "#ffaa22",
        "marker-symbol": "1",
        "line": "crime"
      },
      "geometry": {
        "type": "Point",
        "coordinates": [
          121.563862,25.054159

        ]
      }
    },
    {
      "type": "Feature",
      "properties": {
        "name": "臺北市松山區八德路2段346巷5弄附近",
        "marker-color": "#ffaa22",
        "marker-symbol": "1",
        "line": "crime"
      },
      "geometry": {
        "type": "Point",
        "coordinates": [
          121.545566,25.047133

        ]
      }
    },
    {
      "type": "Feature",
      "properties": {
        "name": "臺北市松山區敦化北路與八德路口地下道",
        "marker-color": "#ffaa22",
        "marker-symbol": "1",
        "line": "crime"
      },
      "geometry": {
        "type": "Point",
        "coordinates": [
          121.549225,25.055764

        ]
      }
    },
    {
      "type": "Feature",
      "properties": {
        "name": "臺北市松山區民生東路5段、撫遠街口",
        "marker-color": "#ffaa22",
        "marker-symbol": "1",
        "line": "crime"
      },
      "geometry": {
        "type": "Point",
        "coordinates": [
          121.568467,25.059237

        ]
      }
    },
    {
      "type": "Feature",
      "properties": {
        "name": "臺北市松山區南京東路5段147巷內(西松國小後門)",
        "marker-color": "#ffaa22",
        "marker-symbol": "1",
        "line": "crime"
      },
      "geometry": {
        "type": "Point",
        "coordinates": [
          121.562023,25.05275

        ]
      }
    },
    {
      "type": "Feature",
      "properties": {
        "name": "臺北市松山區復興北路231巷",
        "marker-color": "#ffaa22",
        "marker-symbol": "1",
        "line": "crime"
      },
      "geometry": {
        "type": "Point",
        "coordinates": [
          121.544775,25.057031

        ]
      }
    },
    {
      "type": "Feature",
      "properties": {
        "name": "臺北市信義區松隆路、永吉路30巷口",
        "marker-color": "#ffaa22",
        "marker-symbol": "1",
        "line": "crime"
      },
      "geometry": {
        "type": "Point",
        "coordinates": [
          121.568796,25.04454

        ]
      }
    },
    {
      "type": "Feature",
      "properties": {
        "name": "臺北市信義區永吉公園",
        "marker-color": "#ffaa22",
        "marker-symbol": "1",
        "line": "crime"
      },
      "geometry": {
        "type": "Point",
        "coordinates": [
          121.575012,25.043535

        ]
      }
    },
    {
      "type": "Feature",
      "properties": {
        "name": "臺北市信義區中強公園",
        "marker-color": "#ffaa22",
        "marker-symbol": "1",
        "line": "crime"
      },
      "geometry": {
        "type": "Point",
        "coordinates": [
          121.570114,25.030418

        ]
      }
    },
    {
      "type": "Feature",
      "properties": {
        "name": "臺北市信義區福德街251巷7弄周邊",
        "marker-color": "#ffaa22",
        "marker-symbol": "1",
        "line": "crime"
      },
      "geometry": {
        "type": "Point",
        "coordinates": [
          121.586324,25.037966

        ]
      }
    },
    {
      "type": "Feature",
      "properties": {
        "name": "臺北市信義區崇德街38巷內",
        "marker-color": "#ffaa22",
        "marker-symbol": "1",
        "line": "crime"
      },
      "geometry": {
        "type": "Point",
        "coordinates": [
          121.553916,25.024307

        ]
      }
    },
    {
      "type": "Feature",
      "properties": {
        "name": "臺北市士林區美崙街190號旁  (基河路底)",
        "marker-color": "#ffaa22",
        "marker-symbol": "1",
        "line": "crime"
      },
      "geometry": {
        "type": "Point",
        "coordinates": [
          121.517473,25.097155

        ]
      }
    },
    {
      "type": "Feature",
      "properties": {
        "name": "臺北市士林區延平北路6段308號",
        "marker-color": "#ffaa22",
        "marker-symbol": "1",
        "line": "crime"
      },
      "geometry": {
        "type": "Point",
        "coordinates": [
          121.502948,25.089812

        ]
      }
    },
    {
      "type": "Feature",
      "properties": {
        "name": "臺北市士林區三腳渡堤外 百齡右岸河濱公園",
        "marker-color": "#ffaa22",
        "marker-symbol": "1",
        "line": "crime"
      },
      "geometry": {
        "type": "Point",
        "coordinates": [
          121.524608,25.095049

        ]
      }
    },
    {
      "type": "Feature",
      "properties": {
        "name": "臺北市士林區忠誠路2段207巷內(運動公園周邊)",
        "marker-color": "#ffaa22",
        "marker-symbol": "1",
        "line": "crime"
      },
      "geometry": {
        "type": "Point",
        "coordinates": [
          121.535605,25.116446

        ]
      }
    },
    {
      "type": "Feature",
      "properties": {
        "name": "臺北市士林區忠誠公園",
        "marker-color": "#ffaa22",
        "marker-symbol": "1",
        "line": "crime"
      },
      "geometry": {
        "type": "Point",
        "coordinates": [
          121.525772,25.103558

        ]
      }
    },
    {
      "type": "Feature",
      "properties": {
        "name": "臺北市士林區永公路245巷34弄底6之6重劃區周邊",
        "marker-color": "#ffaa22",
        "marker-symbol": "1",
        "line": "crime"
      },
      "geometry": {
        "type": "Point",
        "coordinates": [
          121.560781,25.13326

        ]
      }
    },
    {
      "type": "Feature",
      "properties": {
        "name": "臺北市士林區至善路3段71巷",
        "marker-color": "#ffaa22",
        "marker-symbol": "1",
        "line": "crime"
      },
      "geometry": {
        "type": "Point",
        "coordinates": [
          121.569606,25.116964

        ]
      }
    },
    {
      "type": "Feature",
      "properties": {
        "name": "臺北市北投區中央北路4段583巷內",
        "marker-color": "#ffaa22",
        "marker-symbol": "1",
        "line": "crime"
      },
      "geometry": {
        "type": "Point",
        "coordinates": [
          121.466453,25.124979

        ]
      }
    },
    {
      "type": "Feature",
      "properties": {
        "name": "臺北市文山區指南路1段道南橋下(含指南路1段道南橋頭)",
        "marker-color": "#ffaa22",
        "marker-symbol": "1",
        "line": "crime"
      },
      "geometry": {
        "type": "Point",
        "coordinates": [
          121.565427,25.032964

        ]
      }
    },
    {
      "type": "Feature",
      "properties": {
        "name": "臺北市文山區木新路3段至寶橋下沿線河堤一帶",
        "marker-color": "#ffaa22",
        "marker-symbol": "1",
        "line": "crime"
      },
      "geometry": {
        "type": "Point",
        "coordinates": [
          121.559493,24.981444

        ]
      }
    },
    {
      "type": "Feature",
      "properties": {
        "name": "臺北市文山區木柵路1段1號至木柵路1段57號",
        "marker-color": "#ffaa22",
        "marker-symbol": "1",
        "line": "crime"
      },
      "geometry": {
        "type": "Point",
        "coordinates": [
          121.565427,25.032964

        ]
      }
    },
    {
      "type": "Feature",
      "properties": {
        "name": "臺北市文山區新光路1段118巷到道南橋下涵洞",
        "marker-color": "#ffaa22",
        "marker-symbol": "1",
        "line": "crime"
      },
      "geometry": {
        "type": "Point",
        "coordinates": [
          121.565427,25.032964

        ]
      }
    },
    {
      "type": "Feature",
      "properties": {
        "name": "臺北市文山區木柵路4段159巷14號至170弄口",
        "marker-color": "#ffaa22",
        "marker-symbol": "1",
        "line": "crime"
      },
      "geometry": {
        "type": "Point",
        "coordinates": [
          121.575404,25.000695

        ]
      }
    },
    {
      "type": "Feature",
      "properties": {
        "name": "臺北市文山區興德路66巷往萬美國宅階梯處",
        "marker-color": "#ffaa22",
        "marker-symbol": "1",
        "line": "crime"
      },
      "geometry": {
        "type": "Point",
        "coordinates": [
          121.55827,25.003636

        ]
      }
    },
    {
      "type": "Feature",
      "properties": {
        "name": "臺北市文山區萬芳醫院捷運站(興隆路3段111號)",
        "marker-color": "#ffaa22",
        "marker-symbol": "1",
        "line": "crime"
      },
      "geometry": {
        "type": "Point",
        "coordinates": [
          121.57125,24.992921

        ]
      }
    },
    {
      "type": "Feature",
      "properties": {
        "name": "臺北市文山區辛亥捷運站(辛亥路4段128號)",
        "marker-color": "#ffaa22",
        "marker-symbol": "1",
        "line": "crime"
      },
      "geometry": {
        "type": "Point",
        "coordinates": [
          121.565427,25.032964

        ]
      }
    },
    {
      "type": "Feature",
      "properties": {
        "name": "臺北市文山區基隆路四段與汀州路四段路口",
        "marker-color": "#ffaa22",
        "marker-symbol": "1",
        "line": "crime"
      },
      "geometry": {
        "type": "Point",
        "coordinates": [
          121.565427,25.032964

        ]
      }
    },
    {
      "type": "Feature",
      "properties": {
        "name": "臺北市文山區汀洲路四段88號（師大分部）後面",
        "marker-color": "#ffaa22",
        "marker-symbol": "1",
        "line": "crime"
      },
      "geometry": {
        "type": "Point",
        "coordinates": [
          121.535437,25.001009

        ]
      }
    },
    {
      "type": "Feature",
      "properties": {
        "name": "臺北市文山區羅斯福路6段401巷景美捷運站1號出口",
        "marker-color": "#ffaa22",
        "marker-symbol": "1",
        "line": "crime"
      },
      "geometry": {
        "type": "Point",
        "coordinates": [
          121.5408,24.992012

        ]
      }
    },
    {
      "type": "Feature",
      "properties": {
        "name": "臺北市文山區景行公園",
        "marker-color": "#ffaa22",
        "marker-symbol": "1",
        "line": "crime"
      },
      "geometry": {
        "type": "Point",
        "coordinates": [
          121.542829,24.992615

        ]
      }
    },
    {
      "type": "Feature",
      "properties": {
        "name": "臺北市內湖區內湖路三段60巷50弄",
        "marker-color": "#ffaa22",
        "marker-symbol": "1",
        "line": "crime"
      },
      "geometry": {
        "type": "Point",
        "coordinates": [
          121.592897,25.089274

        ]
      }
    },
    {
      "type": "Feature",
      "properties": {
        "name": "臺北市內湖區民權東路6段180巷",
        "marker-color": "#ffaa22",
        "marker-symbol": "1",
        "line": "crime"
      },
      "geometry": {
        "type": "Point",
        "coordinates": [
          121.592698,25.067659

        ]
      }
    },
    {
      "type": "Feature",
      "properties": {
        "name": "臺北市南港區忠孝東路6段2號(後山埤捷運站)",
        "marker-color": "#ffaa22",
        "marker-symbol": "1",
        "line": "crime"
      },
      "geometry": {
        "type": "Point",
        "coordinates": [
          121.611195,25.031235

        ]
      }
    },
    {
      "type": "Feature",
      "properties": {
        "name": "臺北市南港區南港路1段、興中路口(南興公園)",
        "marker-color": "#ffaa22",
        "marker-symbol": "1",
        "line": "crime"
      },
      "geometry": {
        "type": "Point",
        "coordinates": [
          121.607586,25.053958

        ]
      }
    },
    {
      "type": "Feature",
      "properties": {
        "name": "新北市三重區中正北路",
        "marker-color": "#ffaa22",
        "marker-symbol": "1",
        "line": "crime"
      },
      "geometry": {
        "type": "Point",
        "coordinates": [
          121.482995,25.067139

        ]
      }
    },
    {
      "type": "Feature",
      "properties": {
        "name": "新北市鶯歌區鶯桃路",
        "marker-color": "#ffaa22",
        "marker-symbol": "1",
        "line": "crime"
      },
      "geometry": {
        "type": "Point",
        "coordinates": [
          121.334039,24.961176

        ]
      }
    },
    {
      "type": "Feature",
      "properties": {
        "name": "新北市三峽區復興路",
        "marker-color": "#ffaa22",
        "marker-symbol": "1",
        "line": "crime"
      },
      "geometry": {
        "type": "Point",
        "coordinates": [
          121.365495,24.938871

        ]
      }
    },
    {
      "type": "Feature",
      "properties": {
        "name": "新北市土城區學府路一段",
        "marker-color": "#ffaa22",
        "marker-symbol": "1",
        "line": "crime"
      },
      "geometry": {
        "type": "Point",
        "coordinates": [
          121.454045,24.986493

        ]
      }
    },
    {
      "type": "Feature",
      "properties": {
        "name": "新北市中和區新生街",
        "marker-color": "#ffaa22",
        "marker-symbol": "1",
        "line": "crime"
      },
      "geometry": {
        "type": "Point",
        "coordinates": [
          121.483652,25.000699

        ]
      }
    },
    {
      "type": "Feature",
      "properties": {
        "name": "新北市中和區連城路",
        "marker-color": "#ffaa22",
        "marker-symbol": "1",
        "line": "crime"
      },
      "geometry": {
        "type": "Point",
        "coordinates": [
          121.487306,24.99624

        ]
      }
    },
    {
      "type": "Feature",
      "properties": {
        "name": "新北市中和區圓通路",
        "marker-color": "#ffaa22",
        "marker-symbol": "1",
        "line": "crime"
      },
      "geometry": {
        "type": "Point",
        "coordinates": [
          121.492562,24.990722

        ]
      }
    },
    {
      "type": "Feature",
      "properties": {
        "name": "新北市中和區錦和路",
        "marker-color": "#ffaa22",
        "marker-symbol": "1",
        "line": "crime"
      },
      "geometry": {
        "type": "Point",
        "coordinates": [
          121.489457,24.99763

        ]
      }
    },
    {
      "type": "Feature",
      "properties": {
        "name": "新北市永和區竹林路",
        "marker-color": "#ffaa22",
        "marker-symbol": "1",
        "line": "crime"
      },
      "geometry": {
        "type": "Point",
        "coordinates": [
          121.519767,25.011844

        ]
      }
    },
    {
      "type": "Feature",
      "properties": {
        "name": "新北市汐止區中興路",
        "marker-color": "#ffaa22",
        "marker-symbol": "1",
        "line": "crime"
      },
      "geometry": {
        "type": "Point",
        "coordinates": [
          121.632716,25.064369

        ]
      }
    },
    {
      "type": "Feature",
      "properties": {
        "name": "新北市淡水區水源路一段",
        "marker-color": "#ffaa22",
        "marker-symbol": "1",
        "line": "crime"
      },
      "geometry": {
        "type": "Point",
        "coordinates": [
          121.427152,25.176021

        ]
      }
    },
    {
      "type": "Feature",
      "properties": {
        "name": "新北市三芝區三民路",
        "marker-color": "#ffaa22",
        "marker-symbol": "1",
        "line": "crime"
      },
      "geometry": {
        "type": "Point",
        "coordinates": [
          121.504929,25.258707

        ]
      }
    },
    {
      "type": "Feature",
      "properties": {
        "name": "新北市淡水區中山北路二段",
        "marker-color": "#ffaa22",
        "marker-symbol": "1",
        "line": "crime"
      },
      "geometry": {
        "type": "Point",
        "coordinates": [
          121.444267,25.185344

        ]
      }
    },
    {
      "type": "Feature",
      "properties": {
        "name": "新北市新店區安業街",
        "marker-color": "#ffaa22",
        "marker-symbol": "1",
        "line": "crime"
      },
      "geometry": {
        "type": "Point",
        "coordinates": [
          121.524287,24.971049

        ]
      }
    },
    {
      "type": "Feature",
      "properties": {
        "name": "新北市新莊區新莊路",
        "marker-color": "#ffaa22",
        "marker-symbol": "1",
        "line": "crime"
      },
      "geometry": {
        "type": "Point",
        "coordinates": [
          121.450699,25.033642

        ]
      }
    },
    {
      "type": "Feature",
      "properties": {
        "name": "新北市新莊區福壽街",
        "marker-color": "#ffaa22",
        "marker-symbol": "1",
        "line": "crime"
      },
      "geometry": {
        "type": "Point",
        "coordinates": [
          121.458029,25.054

        ]
      }
    },
    {
      "type": "Feature",
      "properties": {
        "name": "新北市樹林區保安街二段",
        "marker-color": "#ffaa22",
        "marker-symbol": "1",
        "line": "crime"
      },
      "geometry": {
        "type": "Point",
        "coordinates": [
          121.414155,25.003699

        ]
      }
    },
    {
      "type": "Feature",
      "properties": {
        "name": "新北市樹林區啟智街",
        "marker-color": "#ffaa22",
        "marker-symbol": "1",
        "line": "crime"
      },
      "geometry": {
        "type": "Point",
        "coordinates": [
          121.418628,24.990141

        ]
      }
    },
    {
      "type": "Feature",
      "properties": {
        "name": "新北市樹林區復興路",
        "marker-color": "#ffaa22",
        "marker-symbol": "1",
        "line": "crime"
      },
      "geometry": {
        "type": "Point",
        "coordinates": [
          121.41859,24.988942

        ]
      }
    },
    {
      "type": "Feature",
      "properties": {
        "name": "新北市樹林區保安街一段",
        "marker-color": "#ffaa22",
        "marker-symbol": "1",
        "line": "crime"
      },
      "geometry": {
        "type": "Point",
        "coordinates": [
          121.422629,24.99521

        ]
      }
    },
    {
      "type": "Feature",
      "properties": {
        "name": "新北市蘆洲區民族路",
        "marker-color": "#ffaa22",
        "marker-symbol": "1",
        "line": "crime"
      },
      "geometry": {
        "type": "Point",
        "coordinates": [
          121.474558,25.091496

        ]
      }
    },
    {
      "type": "Feature",
      "properties": {
        "name": "新北市五股區五福路",
        "marker-color": "#ffaa22",
        "marker-symbol": "1",
        "line": "crime"
      },
      "geometry": {
        "type": "Point",
        "coordinates": [
          121.43353,25.089573

        ]
      }
    }    ,
    {
      "type": "Feature",
      "properties": {
        "name": "臺北市松山區塔悠路塔悠路 6號水門內",
        "marker-color": "#eeaa00",
        "marker-symbol": "1",
        "line": "accident"
      },
      "geometry": {
        "type": "Point",
        "coordinates": [
          121.56948490000002,25.0560185
        ]
      }
    },
    {
      "type": "Feature",
      "properties": {
        "name": "臺北市松山區光復北路(口)民權東路4段 光復北路",
        "marker-color": "#eeaa00",
        "marker-symbol": "1",
        "line": "accident"
      },
      "geometry": {
        "type": "Point",
        "coordinates": [
          121.55582770000001,25.0550413
        ]
      }
    },
    {
      "type": "Feature",
      "properties": {
        "name": "臺北市松山區健康路325巷口",
        "marker-color": "#eeaa00",
        "marker-symbol": "1",
        "line": "accident"
      },
      "geometry": {
        "type": "Point",
        "coordinates": [
          121.56718060000003,25.0557517
        ]
      }
    },
    {
      "type": "Feature",
      "properties": {
        "name": "臺北市松山區新中街8巷18號",
        "marker-color": "#eeaa00",
        "marker-symbol": "1",
        "line": "accident"
      },
      "geometry": {
        "type": "Point",
        "coordinates": [
          121.56142669999997,25.0590549
        ]
      }
    },
    {
      "type": "Feature",
      "properties": {
        "name": "臺北市松山區長春路復興北路(口)長春路 復興北路",
        "marker-color": "#eeaa00",
        "marker-symbol": "1",
        "line": "accident"
      },
      "geometry": {
        "type": "Point",
        "coordinates": [
          121.54711240000006,25.0544933
        ]
      }
    },
    {
      "type": "Feature",
      "properties": {
        "name": "臺北市松山區南京東路3段256巷口",
        "marker-color": "#eeaa00",
        "marker-symbol": "1",
        "line": "accident"
      },
      "geometry": {
        "type": "Point",
        "coordinates": [
          121.54470609999998,25.050206
        ]
      }
    },
    {
      "type": "Feature",
      "properties": {
        "name": "臺北市松山區光復北路169號",
        "marker-color": "#eeaa00",
        "marker-symbol": "1",
        "line": "accident"
      },
      "geometry": {
        "type": "Point",
        "coordinates": [
          121.55555700000002,25.0575239
        ]
      }
    },
    {
      "type": "Feature",
      "properties": {
        "name": "臺北市松山區敦化南路(口)市民大道 敦化南路",
        "marker-color": "#eeaa00",
        "marker-symbol": "1",
        "line": "accident"
      },
      "geometry": {
        "type": "Point",
        "coordinates": [
          121.54865519999998,25.0450148
        ]
      }
    },
    {
      "type": "Feature",
      "properties": {
        "name": "臺北市松山區民權東路4段300號前公車停靠區",
        "marker-color": "#eeaa00",
        "marker-symbol": "1",
        "line": "accident"
      },
      "geometry": {
        "type": "Point",
        "coordinates": [
          121.56227139999999,25.0626613
        ]
      }
    },
    {
      "type": "Feature",
      "properties": {
        "name": "臺北市松山區南京東路5段59巷28弄口",
        "marker-color": "#eeaa00",
        "marker-symbol": "1",
        "line": "accident"
      },
      "geometry": {
        "type": "Point",
        "coordinates": [
          121.55823499999997,25.0526259
        ]
      }
    },
    {
      "type": "Feature",
      "properties": {
        "name": "臺北市松山區敦化北路民生東路(口)敦化北路 民生東路",
        "marker-color": "#eeaa00",
        "marker-symbol": "1",
        "line": "accident"
      },
      "geometry": {
        "type": "Point",
        "coordinates": [
          121.54922490000001,25.0557638
        ]
      }
    },
    {
      "type": "Feature",
      "properties": {
        "name": "臺北市松山區東興路東興路 東興路15巷",
        "marker-color": "#eeaa00",
        "marker-symbol": "1",
        "line": "accident"
      },
      "geometry": {
        "type": "Point",
        "coordinates": [
          121.56538460000002,25.049821
        ]
      }
    },
    {
      "type": "Feature",
      "properties": {
        "name": "臺北市松山區南京東路5段34號",
        "marker-color": "#eeaa00",
        "marker-symbol": "1",
        "line": "accident"
      },
      "geometry": {
        "type": "Point",
        "coordinates": [
          121.55923250000001,25.0512633
        ]
      }
    },
    {
      "type": "Feature",
      "properties": {
        "name": "臺北市松山區三民路三民路 西松國小前",
        "marker-color": "#eeaa00",
        "marker-symbol": "1",
        "line": "accident"
      },
      "geometry": {
        "type": "Point",
        "coordinates": [
          121.5630476,25.0622615
        ]
      }
    },
    {
      "type": "Feature",
      "properties": {
        "name": "臺北市松山區市民大道4段223號",
        "marker-color": "#eeaa00",
        "marker-symbol": "1",
        "line": "accident"
      },
      "geometry": {
        "type": "Point",
        "coordinates": [
          121.55348249999997,25.0446424
        ]
      }
    },
    {
      "type": "Feature",
      "properties": {
        "name": "臺北市松山區光復北路11巷口",
        "marker-color": "#eeaa00",
        "marker-symbol": "1",
        "line": "accident"
      },
      "geometry": {
        "type": "Point",
        "coordinates": [
          121.5600935,25.0499461
        ]
      }
    },
    {
      "type": "Feature",
      "properties": {
        "name": "臺北市松山區新東街30巷1號",
        "marker-color": "#eeaa00",
        "marker-symbol": "1",
        "line": "accident"
      },
      "geometry": {
        "type": "Point",
        "coordinates": [
          121.56673669999998,25.0598048
        ]
      }
    },
    {
      "type": "Feature",
      "properties": {
        "name": "臺北市松山區敦化北路民生東路(口)敦化北路 民生東路",
        "marker-color": "#eeaa00",
        "marker-symbol": "1",
        "line": "accident"
      },
      "geometry": {
        "type": "Point",
        "coordinates": [
          121.54922490000001,25.0557638
        ]
      }
    },
    {
      "type": "Feature",
      "properties": {
        "name": "臺北市松山區南京東路4段128號",
        "marker-color": "#eeaa00",
        "marker-symbol": "1",
        "line": "accident"
      },
      "geometry": {
        "type": "Point",
        "coordinates": [
          121.55534669999997,25.0514352
        ]
      }
    },
    {
      "type": "Feature",
      "properties": {
        "name": "臺北市松山區敦化北路143號",
        "marker-color": "#eeaa00",
        "marker-symbol": "1",
        "line": "accident"
      },
      "geometry": {
        "type": "Point",
        "coordinates": [
          121.54933060000008,25.0537573
        ]
      }
    },
    {
      "type": "Feature",
      "properties": {
        "name": "臺北市松山區南京東路敦化北路(口)南京東路 敦化北路",
        "marker-color": "#eeaa00",
        "marker-symbol": "1",
        "line": "accident"
      },
      "geometry": {
        "type": "Point",
        "coordinates": [
          121.5638103,25.0514944
        ]
      }
    },
    {
      "type": "Feature",
      "properties": {
        "name": "臺北市松山區民生東路5段27巷口",
        "marker-color": "#eeaa00",
        "marker-symbol": "1",
        "line": "accident"
      },
      "geometry": {
        "type": "Point",
        "coordinates": [
          121.5566933,25.0593733
        ]
      }
    },
    {
      "type": "Feature",
      "properties": {
        "name": "臺北市松山區民權東路3段106巷3弄23號",
        "marker-color": "#eeaa00",
        "marker-symbol": "1",
        "line": "accident"
      },
      "geometry": {
        "type": "Point",
        "coordinates": [
          121.54593829999999,25.0614952
        ]
      }
    },
    {
      "type": "Feature",
      "properties": {
        "name": "臺北市松山區八德路4段245巷 東興路2巷口",
        "marker-color": "#eeaa00",
        "marker-symbol": "1",
        "line": "accident"
      },
      "geometry": {
        "type": "Point",
        "coordinates": [
          121.56545210000002,25.0494093
        ]
      }
    },
    {
      "type": "Feature",
      "properties": {
        "name": "臺北市松山區八德路4段135號",
        "marker-color": "#eeaa00",
        "marker-symbol": "1",
        "line": "accident"
      },
      "geometry": {
        "type": "Point",
        "coordinates": [
          121.56213600000001,25.0487619
        ]
      }
    },
    {
      "type": "Feature",
      "properties": {
        "name": "臺北市松山區健康路225巷 延壽街330巷17弄",
        "marker-color": "#eeaa00",
        "marker-symbol": "1",
        "line": "accident"
      },
      "geometry": {
        "type": "Point",
        "coordinates": [
          121.56235779999997,25.054898
        ]
      }
    },
    {
      "type": "Feature",
      "properties": {
        "name": "臺北市松山區八德路基隆路(口)八德路 基隆路",
        "marker-color": "#eeaa00",
        "marker-symbol": "1",
        "line": "accident"
      },
      "geometry": {
        "type": "Point",
        "coordinates": [
          121.56888279999998,25.0493187
        ]
      }
    },
    {
      "type": "Feature",
      "properties": {
        "name": "臺北市松山區松山路松山路 市民大道",
        "marker-color": "#eeaa00",
        "marker-symbol": "1",
        "line": "accident"
      },
      "geometry": {
        "type": "Point",
        "coordinates": [
          121.57864159999997,25.0495028
        ]
      }
    },
    {
      "type": "Feature",
      "properties": {
        "name": "臺北市松山區敦化南路1段108號",
        "marker-color": "#eeaa00",
        "marker-symbol": "1",
        "line": "accident"
      },
      "geometry": {
        "type": "Point",
        "coordinates": [
          121.54844530000003,25.0455409
        ]
      }
    },
    {
      "type": "Feature",
      "properties": {
        "name": "臺北市松山區南京東路4段120巷口",
        "marker-color": "#eeaa00",
        "marker-symbol": "1",
        "line": "accident"
      },
      "geometry": {
        "type": "Point",
        "coordinates": [
          121.55510000000004,25.0505887
        ]
      }
    },
    {
      "type": "Feature",
      "properties": {
        "name": "臺北市松山區復興北路民權東路(口)復興北路 民權東路",
        "marker-color": "#eeaa00",
        "marker-symbol": "1",
        "line": "accident"
      },
      "geometry": {
        "type": "Point",
        "coordinates": [
          121.54423629999997,25.0570327
        ]
      }
    },
    {
      "type": "Feature",
      "properties": {
        "name": "臺北市松山區三民路5號(西松國小前)",
        "marker-color": "#eeaa00",
        "marker-symbol": "1",
        "line": "accident"
      },
      "geometry": {
        "type": "Point",
        "coordinates": [
          121.56367139999998,25.0522116
        ]
      }
    },
    {
      "type": "Feature",
      "properties": {
        "name": "臺北市松山區民權東路撫遠街(口)民權東路 撫遠街",
        "marker-color": "#eeaa00",
        "marker-symbol": "1",
        "line": "accident"
      },
      "geometry": {
        "type": "Point",
        "coordinates": [
          121.5563376,25.0620552
        ]
      }
    },
    {
      "type": "Feature",
      "properties": {
        "name": "臺北市松山區光復北路190巷 健康路15巷",
        "marker-color": "#eeaa00",
        "marker-symbol": "1",
        "line": "accident"
      },
      "geometry": {
        "type": "Point",
        "coordinates": [
          121.55290450000007,25.0544713
        ]
      }
    },
    {
      "type": "Feature",
      "properties": {
        "name": "臺北市松山區新東街(口)民生東路5段 新東街",
        "marker-color": "#eeaa00",
        "marker-symbol": "1",
        "line": "accident"
      },
      "geometry": {
        "type": "Point",
        "coordinates": [
          121.56575829999997,25.0600966
        ]
      }
    },
    {
      "type": "Feature",
      "properties": {
        "name": "臺北市松山區八德路4段758號",
        "marker-color": "#eeaa00",
        "marker-symbol": "1",
        "line": "accident"
      },
      "geometry": {
        "type": "Point",
        "coordinates": [
          121.57764450000002,25.0507879
        ]
      }
    },
    {
      "type": "Feature",
      "properties": {
        "name": "臺北市松山區八德路3段197號",
        "marker-color": "#eeaa00",
        "marker-symbol": "1",
        "line": "accident"
      },
      "geometry": {
        "type": "Point",
        "coordinates": [
          121.5561262,25.0481279
        ]
      }
    },
    {
      "type": "Feature",
      "properties": {
        "name": "臺北市松山區健康路260號",
        "marker-color": "#eeaa00",
        "marker-symbol": "1",
        "line": "accident"
      },
      "geometry": {
        "type": "Point",
        "coordinates": [
          121.56290009999998,25.0538874
        ]
      }
    },
    {
      "type": "Feature",
      "properties": {
        "name": "臺北市松山區八德路3段110號前",
        "marker-color": "#eeaa00",
        "marker-symbol": "1",
        "line": "accident"
      },
      "geometry": {
        "type": "Point",
        "coordinates": [
          121.55362259999993,25.0501161
        ]
      }
    },
    {
      "type": "Feature",
      "properties": {
        "name": "臺北市松山區八德路3段125號前",
        "marker-color": "#eeaa00",
        "marker-symbol": "1",
        "line": "accident"
      },
      "geometry": {
        "type": "Point",
        "coordinates": [
          121.55362259999993,25.0501161
        ]
      }
    },
    {
      "type": "Feature",
      "properties": {
        "name": "臺北市松山區民生東路敦化北路(口)民生東路 敦化北路",
        "marker-color": "#eeaa00",
        "marker-symbol": "1",
        "line": "accident"
      },
      "geometry": {
        "type": "Point",
        "coordinates": [
          121.5474653,25.0589492
        ]
      }
    },
    {
      "type": "Feature",
      "properties": {
        "name": "臺北市松山區南京東路4段 北寧路 寧安街之間",
        "marker-color": "#eeaa00",
        "marker-symbol": "1",
        "line": "accident"
      },
      "geometry": {
        "type": "Point",
        "coordinates": [
          121.55367750000005,25.051581
        ]
      }
    },
    {
      "type": "Feature",
      "properties": {
        "name": "臺北市松山區東興路16號前",
        "marker-color": "#eeaa00",
        "marker-symbol": "1",
        "line": "accident"
      },
      "geometry": {
        "type": "Point",
        "coordinates": [
          121.56521299999997,25.049273
        ]
      }
    },
    {
      "type": "Feature",
      "properties": {
        "name": "臺北市松山區八德路2段敦化北路(口)八德路2段 敦化北路",
        "marker-color": "#eeaa00",
        "marker-symbol": "1",
        "line": "accident"
      },
      "geometry": {
        "type": "Point",
        "coordinates": [
          121.5449499,25.0478352
        ]
      }
    },
    {
      "type": "Feature",
      "properties": {
        "name": "臺北市松山區光復南路33巷",
        "marker-color": "#eeaa00",
        "marker-symbol": "1",
        "line": "accident"
      },
      "geometry": {
        "type": "Point",
        "coordinates": [
          121.55870860000005,25.0467958
        ]
      }
    },
    {
      "type": "Feature",
      "properties": {
        "name": "臺北市松山區民權東路撫遠街(口)民權東路 撫遠街",
        "marker-color": "#eeaa00",
        "marker-symbol": "1",
        "line": "accident"
      },
      "geometry": {
        "type": "Point",
        "coordinates": [
          121.5563376,25.0620552
        ]
      }
    },
    {
      "type": "Feature",
      "properties": {
        "name": "臺北市松山區八德路4段110號",
        "marker-color": "#eeaa00",
        "marker-symbol": "1",
        "line": "accident"
      },
      "geometry": {
        "type": "Point",
        "coordinates": [
          121.56114619999994,25.0483706
        ]
      }
    },
    {
      "type": "Feature",
      "properties": {
        "name": "臺北市松山區松河街3號松河街3號",
        "marker-color": "#eeaa00",
        "marker-symbol": "1",
        "line": "accident"
      },
      "geometry": {
        "type": "Point",
        "coordinates": [
          121.57185679999998,25.050903
        ]
      }
    },
    {
      "type": "Feature",
      "properties": {
        "name": "臺北市松山區敦化北路長春路(口)敦化北路 長春路",
        "marker-color": "#eeaa00",
        "marker-symbol": "1",
        "line": "accident"
      },
      "geometry": {
        "type": "Point",
        "coordinates": [
          121.54922490000001,25.0557638
        ]
      }
    },
    {
      "type": "Feature",
      "properties": {
        "name": "臺北市松山區環東快速道路",
        "marker-color": "#eeaa00",
        "marker-symbol": "1",
        "line": "accident"
      },
      "geometry": {
        "type": "Point",
        "coordinates": [
          121.56386210000005,25.0541591
        ]
      }
    },
    {
      "type": "Feature",
      "properties": {
        "name": "臺北市松山區南京東路4段56號",
        "marker-color": "#eeaa00",
        "marker-symbol": "1",
        "line": "accident"
      },
      "geometry": {
        "type": "Point",
        "coordinates": [
          121.55373020000002,25.0515221
        ]
      }
    },
    {
      "type": "Feature",
      "properties": {
        "name": "臺北市松山區南京東路4段8號",
        "marker-color": "#eeaa00",
        "marker-symbol": "1",
        "line": "accident"
      },
      "geometry": {
        "type": "Point",
        "coordinates": [
          121.55192699999998,25.0512959
        ]
      }
    },
    {
      "type": "Feature",
      "properties": {
        "name": "臺北市松山區八德路光復南路(口)八德路 光復南路",
        "marker-color": "#eeaa00",
        "marker-symbol": "1",
        "line": "accident"
      },
      "geometry": {
        "type": "Point",
        "coordinates": [
          121.55632220000007,25.0474752
        ]
      }
    },
    {
      "type": "Feature",
      "properties": {
        "name": "臺北市松山區民權東路5段1號",
        "marker-color": "#eeaa00",
        "marker-symbol": "1",
        "line": "accident"
      },
      "geometry": {
        "type": "Point",
        "coordinates": [
          121.56428570000003,25.0631782
        ]
      }
    },
    {
      "type": "Feature",
      "properties": {
        "name": "臺北市松山區光復南路(口)市民大道 光復南路",
        "marker-color": "#eeaa00",
        "marker-symbol": "1",
        "line": "accident"
      },
      "geometry": {
        "type": "Point",
        "coordinates": [
          121.5578693,25.0467087
        ]
      }
    },
    {
      "type": "Feature",
      "properties": {
        "name": "臺北市松山區光復南路32巷 八德路3段106巷",
        "marker-color": "#eeaa00",
        "marker-symbol": "1",
        "line": "accident"
      },
      "geometry": {
        "type": "Point",
        "coordinates": [
          121.55776459999993,25.0481972
        ]
      }
    },
    {
      "type": "Feature",
      "properties": {
        "name": "臺北市松山區民生東路新東街(口)民生東路 新東街",
        "marker-color": "#eeaa00",
        "marker-symbol": "1",
        "line": "accident"
      },
      "geometry": {
        "type": "Point",
        "coordinates": [
          121.56222920000005,25.0589266
        ]
      }
    },
    {
      "type": "Feature",
      "properties": {
        "name": "臺北市松山區撫遠街富錦街(口)撫遠街 富錦街",
        "marker-color": "#eeaa00",
        "marker-symbol": "1",
        "line": "accident"
      },
      "geometry": {
        "type": "Point",
        "coordinates": [
          121.56612610000002,25.0623963
        ]
      }
    },
    {
      "type": "Feature",
      "properties": {
        "name": "臺北市松山區塔悠路86號前",
        "marker-color": "#eeaa00",
        "marker-symbol": "1",
        "line": "accident"
      },
      "geometry": {
        "type": "Point",
        "coordinates": [
          121.57020609999995,25.0531257
        ]
      }
    },
    {
      "type": "Feature",
      "properties": {
        "name": "臺北市松山區南京東路光復北路(口)南京東路 光復北路",
        "marker-color": "#eeaa00",
        "marker-symbol": "1",
        "line": "accident"
      },
      "geometry": {
        "type": "Point",
        "coordinates": [
          121.5638103,25.0514944
        ]
      }
    },
    {
      "type": "Feature",
      "properties": {
        "name": "臺北市松山區八德路3段155巷口",
        "marker-color": "#eeaa00",
        "marker-symbol": "1",
        "line": "accident"
      },
      "geometry": {
        "type": "Point",
        "coordinates": [
          121.55506549999996,25.0489218
        ]
      }
    },
    {
      "type": "Feature",
      "properties": {
        "name": "臺北市松山區八德路2段346巷口",
        "marker-color": "#eeaa00",
        "marker-symbol": "1",
        "line": "accident"
      },
      "geometry": {
        "type": "Point",
        "coordinates": [
          121.54495650000001,25.0471386
        ]
      }
    },
    {
      "type": "Feature",
      "properties": {
        "name": "臺北市松山區民權東路民權大橋下橋處(東往西)",
        "marker-color": "#eeaa00",
        "marker-symbol": "1",
        "line": "accident"
      },
      "geometry": {
        "type": "Point",
        "coordinates": [
          121.56603840000002,25.063144
        ]
      }
    },
    {
      "type": "Feature",
      "properties": {
        "name": "臺北市松山區松河街中坡北路(口)松河街 中坡北路",
        "marker-color": "#eeaa00",
        "marker-symbol": "1",
        "line": "accident"
      },
      "geometry": {
        "type": "Point",
        "coordinates": [
          121.56386210000005,25.0541591
        ]
      }
    },
    {
      "type": "Feature",
      "properties": {
        "name": "臺北市松山區八德路東興路(口)八德路 東興路",
        "marker-color": "#eeaa00",
        "marker-symbol": "1",
        "line": "accident"
      },
      "geometry": {
        "type": "Point",
        "coordinates": [
          121.56888279999998,25.0493187
        ]
      }
    },
    {
      "type": "Feature",
      "properties": {
        "name": "臺北市松山區塔悠路塔悠路 撫遠街255巷",
        "marker-color": "#eeaa00",
        "marker-symbol": "1",
        "line": "accident"
      },
      "geometry": {
        "type": "Point",
        "coordinates": [
          121.56936050000002,25.0576385
        ]
      }
    },
    {
      "type": "Feature",
      "properties": {
        "name": "臺北市松山區光復南路35號",
        "marker-color": "#eeaa00",
        "marker-symbol": "1",
        "line": "accident"
      },
      "geometry": {
        "type": "Point",
        "coordinates": [
          121.55804330000001,25.0465751
        ]
      }
    },
    {
      "type": "Feature",
      "properties": {
        "name": "臺北市松山區復興南路1段23號前",
        "marker-color": "#eeaa00",
        "marker-symbol": "1",
        "line": "accident"
      },
      "geometry": {
        "type": "Point",
        "coordinates": [
          121.56386210000005,25.0541591
        ]
      }
    },
    {
      "type": "Feature",
      "properties": {
        "name": "臺北市松山區八德路4段38號前",
        "marker-color": "#eeaa00",
        "marker-symbol": "1",
        "line": "accident"
      },
      "geometry": {
        "type": "Point",
        "coordinates": [
          121.55847160000008,25.0488131
        ]
      }
    },
    {
      "type": "Feature",
      "properties": {
        "name": "臺北市松山區市民大道4段微風廣場旁",
        "marker-color": "#eeaa00",
        "marker-symbol": "1",
        "line": "accident"
      },
      "geometry": {
        "type": "Point",
        "coordinates": [
          121.55068570000003,25.0447752
        ]
      }
    },
    {
      "type": "Feature",
      "properties": {
        "name": "臺北市松山區敦化北路敦化北路 敦化北路155巷口",
        "marker-color": "#eeaa00",
        "marker-symbol": "1",
        "line": "accident"
      },
      "geometry": {
        "type": "Point",
        "coordinates": [
          121.54907639999999,25.0599803
        ]
      }
    },
    {
      "type": "Feature",
      "properties": {
        "name": "臺北市松山區撫遠街富錦街(口)撫遠街 富錦街",
        "marker-color": "#eeaa00",
        "marker-symbol": "1",
        "line": "accident"
      },
      "geometry": {
        "type": "Point",
        "coordinates": [
          121.56612610000002,25.0623963
        ]
      }
    },
    {
      "type": "Feature",
      "properties": {
        "name": "臺北市松山區民生東路5段25號",
        "marker-color": "#eeaa00",
        "marker-symbol": "1",
        "line": "accident"
      },
      "geometry": {
        "type": "Point",
        "coordinates": [
          121.55614479999997,25.0585481
        ]
      }
    },
    {
      "type": "Feature",
      "properties": {
        "name": "臺北市松山區復興北路427巷 民權東路3段103巷25弄",
        "marker-color": "#eeaa00",
        "marker-symbol": "1",
        "line": "accident"
      },
      "geometry": {
        "type": "Point",
        "coordinates": [
          121.54519670000002,25.063359
        ]
      }
    },
    {
      "type": "Feature",
      "properties": {
        "name": "臺北市松山區市民大道4段",
        "marker-color": "#eeaa00",
        "marker-symbol": "1",
        "line": "accident"
      },
      "geometry": {
        "type": "Point",
        "coordinates": [
          121.55068570000003,25.0447752
        ]
      }
    },
    {
      "type": "Feature",
      "properties": {
        "name": "臺北市松山區寶清街30巷",
        "marker-color": "#eeaa00",
        "marker-symbol": "1",
        "line": "accident"
      },
      "geometry": {
        "type": "Point",
        "coordinates": [
          121.5681495,25.0519326
        ]
      }
    },
    {
      "type": "Feature",
      "properties": {
        "name": "臺北市松山區光復北路光復北路 南京東路4段179巷3弄口",
        "marker-color": "#eeaa00",
        "marker-symbol": "1",
        "line": "accident"
      },
      "geometry": {
        "type": "Point",
        "coordinates": [
          121.55582770000001,25.0550413
        ]
      }
    },
    {
      "type": "Feature",
      "properties": {
        "name": "臺北市松山區南京東路5段92號",
        "marker-color": "#eeaa00",
        "marker-symbol": "1",
        "line": "accident"
      },
      "geometry": {
        "type": "Point",
        "coordinates": [
          121.56170559999998,25.0512527
        ]
      }
    },
    {
      "type": "Feature",
      "properties": {
        "name": "臺北市松山區撫遠街255巷口",
        "marker-color": "#eeaa00",
        "marker-symbol": "1",
        "line": "accident"
      },
      "geometry": {
        "type": "Point",
        "coordinates": [
          121.56707540000002,25.060605
        ]
      }
    },
    {
      "type": "Feature",
      "properties": {
        "name": "臺北市松山區民權東路敦化北路(口)民權東路 敦化北路",
        "marker-color": "#eeaa00",
        "marker-symbol": "1",
        "line": "accident"
      },
      "geometry": {
        "type": "Point",
        "coordinates": [
          121.5563376,25.0620552
        ]
      }
    },
    {
      "type": "Feature",
      "properties": {
        "name": "臺北市松山區濱江街862號前",
        "marker-color": "#eeaa00",
        "marker-symbol": "1",
        "line": "accident"
      },
      "geometry": {
        "type": "Point",
        "coordinates": [
          121.55976650000002,25.0712686
        ]
      }
    },
    {
      "type": "Feature",
      "properties": {
        "name": "臺北市松山區八德路4段塔悠路(口)八德路4段 塔悠路",
        "marker-color": "#eeaa00",
        "marker-symbol": "1",
        "line": "accident"
      },
      "geometry": {
        "type": "Point",
        "coordinates": [
          121.56888279999998,25.0493187
        ]
      }
    },
    {
      "type": "Feature",
      "properties": {
        "name": "臺北市松山區八德路(口)復興南路1段 八德路",
        "marker-color": "#eeaa00",
        "marker-symbol": "1",
        "line": "accident"
      },
      "geometry": {
        "type": "Point",
        "coordinates": [
          121.56888279999998,25.0493187
        ]
      }
    },
    {
      "type": "Feature",
      "properties": {
        "name": "臺北市松山區民權東路撫遠街(口)民權東路 撫遠街",
        "marker-color": "#eeaa00",
        "marker-symbol": "1",
        "line": "accident"
      },
      "geometry": {
        "type": "Point",
        "coordinates": [
          121.5563376,25.0620552
        ]
      }
    },
    {
      "type": "Feature",
      "properties": {
        "name": "臺北市松山區南京東路5段169號前",
        "marker-color": "#eeaa00",
        "marker-symbol": "1",
        "line": "accident"
      },
      "geometry": {
        "type": "Point",
        "coordinates": [
          121.55726879999997,25.0514559
        ]
      }
    },
    {
      "type": "Feature",
      "properties": {
        "name": "臺北市松山區南京東路5段202號之1",
        "marker-color": "#eeaa00",
        "marker-symbol": "1",
        "line": "accident"
      },
      "geometry": {
        "type": "Point",
        "coordinates": [
          121.56483530000003,25.0511914
        ]
      }
    },
    {
      "type": "Feature",
      "properties": {
        "name": "臺北市松山區東寧路13號",
        "marker-color": "#eeaa00",
        "marker-symbol": "1",
        "line": "accident"
      },
      "geometry": {
        "type": "Point",
        "coordinates": [
          121.56306999999993,25.048192
        ]
      }
    },
    {
      "type": "Feature",
      "properties": {
        "name": "臺北市松山區復興北路337號",
        "marker-color": "#eeaa00",
        "marker-symbol": "1",
        "line": "accident"
      },
      "geometry": {
        "type": "Point",
        "coordinates": [
          121.54447789999995,25.0600742
        ]
      }
    },
    {
      "type": "Feature",
      "properties": {
        "name": "臺北市松山區長安東路復興北路(口)長安東路 復興北路",
        "marker-color": "#eeaa00",
        "marker-symbol": "1",
        "line": "accident"
      },
      "geometry": {
        "type": "Point",
        "coordinates": [
          121.5452699,25.0482501
        ]
      }
    },
    {
      "type": "Feature",
      "properties": {
        "name": "臺北市松山區復興北路復興北路 市民大道",
        "marker-color": "#eeaa00",
        "marker-symbol": "1",
        "line": "accident"
      },
      "geometry": {
        "type": "Point",
        "coordinates": [
          121.54423629999997,25.0570327
        ]
      }
    },
    {
      "type": "Feature",
      "properties": {
        "name": "臺北市松山區國道一號21公里0公尺處北向外側車道",
        "marker-color": "#eeaa00",
        "marker-symbol": "1",
        "line": "accident"
      },
      "geometry": {
        "type": "Point",
        "coordinates": [
          121.56386210000005,25.0541591
        ]
      }
    },
    {
      "type": "Feature",
      "properties": {
        "name": "臺北市松山區民權東路敦化北路(口)民權東路 敦化北路",
        "marker-color": "#eeaa00",
        "marker-symbol": "1",
        "line": "accident"
      },
      "geometry": {
        "type": "Point",
        "coordinates": [
          121.5563376,25.0620552
        ]
      }
    },
    {
      "type": "Feature",
      "properties": {
        "name": "臺北市松山區光復北路健康路(口)光復北路 健康路",
        "marker-color": "#eeaa00",
        "marker-symbol": "1",
        "line": "accident"
      },
      "geometry": {
        "type": "Point",
        "coordinates": [
          121.55582770000001,25.0550413
        ]
      }
    },
    {
      "type": "Feature",
      "properties": {
        "name": "臺北市松山區八德路3段12巷口",
        "marker-color": "#eeaa00",
        "marker-symbol": "1",
        "line": "accident"
      },
      "geometry": {
        "type": "Point",
        "coordinates": [
          121.55071329999998,25.0466604
        ]
      }
    },
    {
      "type": "Feature",
      "properties": {
        "name": "臺北市松山區八德路2段366巷15-7號",
        "marker-color": "#eeaa00",
        "marker-symbol": "1",
        "line": "accident"
      },
      "geometry": {
        "type": "Point",
        "coordinates": [
          121.546244,25.04734
        ]
      }
    },
    {
      "type": "Feature",
      "properties": {
        "name": "臺北市松山區民權東路與光復北路口(附近)",
        "marker-color": "#eeaa00",
        "marker-symbol": "1",
        "line": "accident"
      },
      "geometry": {
        "type": "Point",
        "coordinates": [
          121.5563376,25.0620552
        ]
      }
    },
    {
      "type": "Feature",
      "properties": {
        "name": "臺北市松山區民權東路敦化北路(口)民權東路 敦化北路",
        "marker-color": "#eeaa00",
        "marker-symbol": "1",
        "line": "accident"
      },
      "geometry": {
        "type": "Point",
        "coordinates": [
          121.5563376,25.0620552
        ]
      }
    },
    {
      "type": "Feature",
      "properties": {
        "name": "臺北市松山區八德路吉祥路(口)八德路 吉祥路",
        "marker-color": "#eeaa00",
        "marker-symbol": "1",
        "line": "accident"
      },
      "geometry": {
        "type": "Point",
        "coordinates": [
          121.56888279999998,25.0493187
        ]
      }
    },
    {
      "type": "Feature",
      "properties": {
        "name": "臺北市松山區國道一號20公里500公尺處北向外側路肩車道",
        "marker-color": "#eeaa00",
        "marker-symbol": "1",
        "line": "accident"
      },
      "geometry": {
        "type": "Point",
        "coordinates": [
          121.56386210000005,25.0541591
        ]
      }
    },
    {
      "type": "Feature",
      "properties": {
        "name": "臺北市松山區健康路三民路(口)健康路 三民路",
        "marker-color": "#eeaa00",
        "marker-symbol": "1",
        "line": "accident"
      },
      "geometry": {
        "type": "Point",
        "coordinates": [
          121.56138280000005,25.0539855
        ]
      }
    },
    {
      "type": "Feature",
      "properties": {
        "name": "臺北市松山區八德路4段東興路(口)八德路4段 東興路",
        "marker-color": "#eeaa00",
        "marker-symbol": "1",
        "line": "accident"
      },
      "geometry": {
        "type": "Point",
        "coordinates": [
          121.56888279999998,25.0493187
        ]
      }
    },
    {
      "type": "Feature",
      "properties": {
        "name": "臺北市松山區光復北路190巷口",
        "marker-color": "#eeaa00",
        "marker-symbol": "1",
        "line": "accident"
      },
      "geometry": {
        "type": "Point",
        "coordinates": [
          121.5543189,25.0545645
        ]
      }
    },
    {
      "type": "Feature",
      "properties": {
        "name": "臺北市松山區南京東路5段66巷",
        "marker-color": "#eeaa00",
        "marker-symbol": "1",
        "line": "accident"
      },
      "geometry": {
        "type": "Point",
        "coordinates": [
          121.56078649999995,25.0504676
        ]
      }
    },
    {
      "type": "Feature",
      "properties": {
        "name": "臺北市松山區八德路3段8巷 八德路3段12巷52弄",
        "marker-color": "#eeaa00",
        "marker-symbol": "1",
        "line": "accident"
      },
      "geometry": {
        "type": "Point",
        "coordinates": [
          121.55071659999999,25.0481928
        ]
      }
    },
    {
      "type": "Feature",
      "properties": {
        "name": "臺北市松山區民生東路光復北路(口)民生東路 光復北路",
        "marker-color": "#eeaa00",
        "marker-symbol": "1",
        "line": "accident"
      },
      "geometry": {
        "type": "Point",
        "coordinates": [
          121.56222920000005,25.0589266
        ]
      }
    },
    {
      "type": "Feature",
      "properties": {
        "name": "臺北市松山區民權東路4段200號對面",
        "marker-color": "#eeaa00",
        "marker-symbol": "1",
        "line": "accident"
      },
      "geometry": {
        "type": "Point",
        "coordinates": [
          121.56229200000007,25.0625251
        ]
      }
    },
    {
      "type": "Feature",
      "properties": {
        "name": "臺北市松山區健康路(口)延壽街330巷 健康路",
        "marker-color": "#eeaa00",
        "marker-symbol": "1",
        "line": "accident"
      },
      "geometry": {
        "type": "Point",
        "coordinates": [
          121.56138280000005,25.0539855
        ]
      }
    },
    {
      "type": "Feature",
      "properties": {
        "name": "臺北市松山區八德路4段17巷",
        "marker-color": "#eeaa00",
        "marker-symbol": "1",
        "line": "accident"
      },
      "geometry": {
        "type": "Point",
        "coordinates": [
          121.55847399999993,25.048968
        ]
      }
    },
    {
      "type": "Feature",
      "properties": {
        "name": "臺北市松山區敦化北路133號前",
        "marker-color": "#eeaa00",
        "marker-symbol": "1",
        "line": "accident"
      },
      "geometry": {
        "type": "Point",
        "coordinates": [
          121.54942900000003,25.0530396
        ]
      }
    },
    {
      "type": "Feature",
      "properties": {
        "name": "臺北市松山區南京東路5段66巷口",
        "marker-color": "#eeaa00",
        "marker-symbol": "1",
        "line": "accident"
      },
      "geometry": {
        "type": "Point",
        "coordinates": [
          121.56078649999995,25.0504676
        ]
      }
    },
    {
      "type": "Feature",
      "properties": {
        "name": "臺北市松山區八德路4段692號",
        "marker-color": "#eeaa00",
        "marker-symbol": "1",
        "line": "accident"
      },
      "geometry": {
        "type": "Point",
        "coordinates": [
          121.57726000000002,25.0499073
        ]
      }
    },
    {
      "type": "Feature",
      "properties": {
        "name": "臺北市松山區南京東路5段70號",
        "marker-color": "#eeaa00",
        "marker-symbol": "1",
        "line": "accident"
      },
      "geometry": {
        "type": "Point",
        "coordinates": [
          121.56097550000004,25.0512618
        ]
      }
    },
    {
      "type": "Feature",
      "properties": {
        "name": "臺北市松山區南京東路5段345號",
        "marker-color": "#eeaa00",
        "marker-symbol": "1",
        "line": "accident"
      },
      "geometry": {
        "type": "Point",
        "coordinates": [
          121.5677379,25.0515715
        ]
      }
    },
    {
      "type": "Feature",
      "properties": {
        "name": "臺北市松山區民權東路3段191巷31弄",
        "marker-color": "#eeaa00",
        "marker-symbol": "1",
        "line": "accident"
      },
      "geometry": {
        "type": "Point",
        "coordinates": [
          121.54726219999998,25.0633325
        ]
      }
    },
    {
      "type": "Feature",
      "properties": {
        "name": "臺北市松山區敦化南路1段102號",
        "marker-color": "#eeaa00",
        "marker-symbol": "1",
        "line": "accident"
      },
      "geometry": {
        "type": "Point",
        "coordinates": [
          121.54843670000002,25.0461046
        ]
      }
    },
    {
      "type": "Feature",
      "properties": {
        "name": "臺北市松山區市民大道4段217號",
        "marker-color": "#eeaa00",
        "marker-symbol": "1",
        "line": "accident"
      },
      "geometry": {
        "type": "Point",
        "coordinates": [
          121.55320959999995,25.0446918
        ]
      }
    },
    {
      "type": "Feature",
      "properties": {
        "name": "臺北市松山區光復南路33巷口",
        "marker-color": "#eeaa00",
        "marker-symbol": "1",
        "line": "accident"
      },
      "geometry": {
        "type": "Point",
        "coordinates": [
          121.5578693,25.0467087
        ]
      }
    },
    {
      "type": "Feature",
      "properties": {
        "name": "臺北市松山區松河街松河街 南京東路5段",
        "marker-color": "#eeaa00",
        "marker-symbol": "1",
        "line": "accident"
      },
      "geometry": {
        "type": "Point",
        "coordinates": [
          121.57518870000001,25.0510704
        ]
      }
    },
    {
      "type": "Feature",
      "properties": {
        "name": "臺北市松山區塔悠路民權東路(口)塔悠路 民權東路",
        "marker-color": "#eeaa00",
        "marker-symbol": "1",
        "line": "accident"
      },
      "geometry": {
        "type": "Point",
        "coordinates": [
          121.56936050000002,25.0576385
        ]
      }
    },
    {
      "type": "Feature",
      "properties": {
        "name": "臺北市松山區民生東路4段133號旁",
        "marker-color": "#eeaa00",
        "marker-symbol": "1",
        "line": "accident"
      },
      "geometry": {
        "type": "Point",
        "coordinates": [
          121.55487240000002,25.0584759
        ]
      }
    },
    {
      "type": "Feature",
      "properties": {
        "name": "臺北市松山區八德路(口)敦化南路1段 八德路",
        "marker-color": "#eeaa00",
        "marker-symbol": "1",
        "line": "accident"
      },
      "geometry": {
        "type": "Point",
        "coordinates": [
          121.54914559999997,25.0481906
        ]
      }
    },
    {
      "type": "Feature",
      "properties": {
        "name": "臺北市松山區民生東路光復北路(口)民生東路 光復北路",
        "marker-color": "#eeaa00",
        "marker-symbol": "1",
        "line": "accident"
      },
      "geometry": {
        "type": "Point",
        "coordinates": [
          121.56222920000005,25.0589266
        ]
      }
    },
    {
      "type": "Feature",
      "properties": {
        "name": "臺北市松山區民權東路三民路(口)民權東路 三民路",
        "marker-color": "#eeaa00",
        "marker-symbol": "1",
        "line": "accident"
      },
      "geometry": {
        "type": "Point",
        "coordinates": [
          121.5563376,25.0620552
        ]
      }
    },
    {
      "type": "Feature",
      "properties": {
        "name": "臺北市松山區八德路東興路(口)八德路 東興路",
        "marker-color": "#eeaa00",
        "marker-symbol": "1",
        "line": "accident"
      },
      "geometry": {
        "type": "Point",
        "coordinates": [
          121.56888279999998,25.0493187
        ]
      }
    },
    {
      "type": "Feature",
      "properties": {
        "name": "臺北市松山區南京東路5段291巷口前",
        "marker-color": "#eeaa00",
        "marker-symbol": "1",
        "line": "accident"
      },
      "geometry": {
        "type": "Point",
        "coordinates": [
          121.56617060000008,25.0529141
        ]
      }
    },
    {
      "type": "Feature",
      "properties": {
        "name": "臺北市松山區健康路三民路(口)健康路 三民路",
        "marker-color": "#eeaa00",
        "marker-symbol": "1",
        "line": "accident"
      },
      "geometry": {
        "type": "Point",
        "coordinates": [
          121.56138280000005,25.0539855
        ]
      }
    },
    {
      "type": "Feature",
      "properties": {
        "name": "臺北市松山區南京東路4段17號",
        "marker-color": "#eeaa00",
        "marker-symbol": "1",
        "line": "accident"
      },
      "geometry": {
        "type": "Point",
        "coordinates": [
          121.55007599999999,25.0519269
        ]
      }
    },
    {
      "type": "Feature",
      "properties": {
        "name": "臺北市松山區南京東路三民路(口)南京東路 三民路",
        "marker-color": "#eeaa00",
        "marker-symbol": "1",
        "line": "accident"
      },
      "geometry": {
        "type": "Point",
        "coordinates": [
          121.5638103,25.0514944
        ]
      }
    },
    {
      "type": "Feature",
      "properties": {
        "name": "臺北市松山區東興路8號東興路8號",
        "marker-color": "#eeaa00",
        "marker-symbol": "1",
        "line": "accident"
      },
      "geometry": {
        "type": "Point",
        "coordinates": [
          121.56534880000004,25.0500861
        ]
      }
    },
    {
      "type": "Feature",
      "properties": {
        "name": "臺北市松山區敦化北路165巷 敦化北路155巷100弄口",
        "marker-color": "#eeaa00",
        "marker-symbol": "1",
        "line": "accident"
      },
      "geometry": {
        "type": "Point",
        "coordinates": [
          121.54923899999994,25.0543662
        ]
      }
    },
    {
      "type": "Feature",
      "properties": {
        "name": "臺北市松山區松河街3號松河街3號",
        "marker-color": "#eeaa00",
        "marker-symbol": "1",
        "line": "accident"
      },
      "geometry": {
        "type": "Point",
        "coordinates": [
          121.57185679999998,25.050903
        ]
      }
    },
    {
      "type": "Feature",
      "properties": {
        "name": "臺北市松山區市民大道4段51號",
        "marker-color": "#eeaa00",
        "marker-symbol": "1",
        "line": "accident"
      },
      "geometry": {
        "type": "Point",
        "coordinates": [
          121.54610809999997,25.0452727
        ]
      }
    },
    {
      "type": "Feature",
      "properties": {
        "name": "臺北市松山區民權東路3段162號前公車停靠區",
        "marker-color": "#eeaa00",
        "marker-symbol": "1",
        "line": "accident"
      },
      "geometry": {
        "type": "Point",
        "coordinates": [
          121.54807670000002,25.0618179
        ]
      }
    },
    {
      "type": "Feature",
      "properties": {
        "name": "臺北市松山區三民路(口)民生東路5段 三民路",
        "marker-color": "#eeaa00",
        "marker-symbol": "1",
        "line": "accident"
      },
      "geometry": {
        "type": "Point",
        "coordinates": [
          121.56362200000001,25.0571115
        ]
      }
    },
    {
      "type": "Feature",
      "properties": {
        "name": "臺北市松山區新中街延壽街(口)新中街 延壽街",
        "marker-color": "#eeaa00",
        "marker-symbol": "1",
        "line": "accident"
      },
      "geometry": {
        "type": "Point",
        "coordinates": [
          121.56041690000006,25.0597123
        ]
      }
    },
    {
      "type": "Feature",
      "properties": {
        "name": "臺北市松山區新中街52巷口",
        "marker-color": "#eeaa00",
        "marker-symbol": "1",
        "line": "accident"
      },
      "geometry": {
        "type": "Point",
        "coordinates": [
          121.56025669999997,25.0614579
        ]
      }
    },
    {
      "type": "Feature",
      "properties": {
        "name": "臺北市松山區民生東路敦化北路(口)民生東路 敦化北路",
        "marker-color": "#eeaa00",
        "marker-symbol": "1",
        "line": "accident"
      },
      "geometry": {
        "type": "Point",
        "coordinates": [
          121.5474653,25.0589492
        ]
      }
    },
    {
      "type": "Feature",
      "properties": {
        "name": "臺北市松山區民權東路光復北路(口)民權東路 光復北路",
        "marker-color": "#eeaa00",
        "marker-symbol": "1",
        "line": "accident"
      },
      "geometry": {
        "type": "Point",
        "coordinates": [
          121.5563376,25.0620552
        ]
      }
    },
    {
      "type": "Feature",
      "properties": {
        "name": "臺北市松山區民權東路3段191巷",
        "marker-color": "#eeaa00",
        "marker-symbol": "1",
        "line": "accident"
      },
      "geometry": {
        "type": "Point",
        "coordinates": [
          121.54662259999998,25.0638195
        ]
      }
    },
    {
      "type": "Feature",
      "properties": {
        "name": "臺北市松山區八德路4段717號",
        "marker-color": "#eeaa00",
        "marker-symbol": "1",
        "line": "accident"
      },
      "geometry": {
        "type": "Point",
        "coordinates": [
          121.57707890000006,25.0501409
        ]
      }
    },
    {
      "type": "Feature",
      "properties": {
        "name": "臺北市松山區民生東路3段122號",
        "marker-color": "#eeaa00",
        "marker-symbol": "1",
        "line": "accident"
      },
      "geometry": {
        "type": "Point",
        "coordinates": [
          121.54540500000007,25.05744
        ]
      }
    },
    {
      "type": "Feature",
      "properties": {
        "name": "臺北市松山區光復北路延壽街(口)光復北路 延壽街",
        "marker-color": "#eeaa00",
        "marker-symbol": "1",
        "line": "accident"
      },
      "geometry": {
        "type": "Point",
        "coordinates": [
          121.55582770000001,25.0550413
        ]
      }
    },
    {
      "type": "Feature",
      "properties": {
        "name": "臺北市松山區八德路4段36巷 光復南路13巷",
        "marker-color": "#eeaa00",
        "marker-symbol": "1",
        "line": "accident"
      },
      "geometry": {
        "type": "Point",
        "coordinates": [
          121.5591776,25.0477783
        ]
      }
    },
    {
      "type": "Feature",
      "properties": {
        "name": "臺北市松山區八德路4段758號",
        "marker-color": "#eeaa00",
        "marker-symbol": "1",
        "line": "accident"
      },
      "geometry": {
        "type": "Point",
        "coordinates": [
          121.57764450000002,25.0507879
        ]
      }
    },
    {
      "type": "Feature",
      "properties": {
        "name": "臺北市松山區敦化北路(口)民生東路3段 敦化北路",
        "marker-color": "#eeaa00",
        "marker-symbol": "1",
        "line": "accident"
      },
      "geometry": {
        "type": "Point",
        "coordinates": [
          121.54922490000001,25.0557638
        ]
      }
    },
    {
      "type": "Feature",
      "properties": {
        "name": "臺北市松山區市民大道4段39號(微風廣場)",
        "marker-color": "#eeaa00",
        "marker-symbol": "1",
        "line": "accident"
      },
      "geometry": {
        "type": "Point",
        "coordinates": [
          121.5449648,25.0451361
        ]
      }
    },
    {
      "type": "Feature",
      "properties": {
        "name": "臺北市松山區南京東路塔悠路(口)南京東路 塔悠路",
        "marker-color": "#eeaa00",
        "marker-symbol": "1",
        "line": "accident"
      },
      "geometry": {
        "type": "Point",
        "coordinates": [
          121.5638103,25.0514944
        ]
      }
    },
    {
      "type": "Feature",
      "properties": {
        "name": "臺北市松山區南京東路5段250巷2弄",
        "marker-color": "#eeaa00",
        "marker-symbol": "1",
        "line": "accident"
      },
      "geometry": {
        "type": "Point",
        "coordinates": [
          121.56724110000005,25.0506992
        ]
      }
    },
    {
      "type": "Feature",
      "properties": {
        "name": "臺北市松山區市民大道5段37號",
        "marker-color": "#eeaa00",
        "marker-symbol": "1",
        "line": "accident"
      },
      "geometry": {
        "type": "Point",
        "coordinates": [
          121.55994310000005,25.046146
        ]
      }
    },
    {
      "type": "Feature",
      "properties": {
        "name": "臺北市松山區八德路4段237號前",
        "marker-color": "#eeaa00",
        "marker-symbol": "1",
        "line": "accident"
      },
      "geometry": {
        "type": "Point",
        "coordinates": [
          121.55847160000008,25.0488131
        ]
      }
    },
    {
      "type": "Feature",
      "properties": {
        "name": "臺北市松山區基隆路八德路(口)基隆路 八德路",
        "marker-color": "#eeaa00",
        "marker-symbol": "1",
        "line": "accident"
      },
      "geometry": {
        "type": "Point",
        "coordinates": [
          121.56989479999993,25.0500883
        ]
      }
    },
    {
      "type": "Feature",
      "properties": {
        "name": "臺北市松山區三民路(口)南京東路5段251巷22弄 三民路",
        "marker-color": "#eeaa00",
        "marker-symbol": "1",
        "line": "accident"
      },
      "geometry": {
        "type": "Point",
        "coordinates": [
          121.56384449999996,25.052026
        ]
      }
    },
    {
      "type": "Feature",
      "properties": {
        "name": "臺北市松山區民生東路3段117號",
        "marker-color": "#eeaa00",
        "marker-symbol": "1",
        "line": "accident"
      },
      "geometry": {
        "type": "Point",
        "coordinates": [
          121.54662000000008,25.058074
        ]
      }
    },
    {
      "type": "Feature",
      "properties": {
        "name": "臺北市松山區八德路4段758號斜前方",
        "marker-color": "#eeaa00",
        "marker-symbol": "1",
        "line": "accident"
      },
      "geometry": {
        "type": "Point",
        "coordinates": [
          121.57764450000002,25.0507879
        ]
      }
    },
    {
      "type": "Feature",
      "properties": {
        "name": "臺北市松山區民權東路三民路(口)民權東路 三民路",
        "marker-color": "#eeaa00",
        "marker-symbol": "1",
        "line": "accident"
      },
      "geometry": {
        "type": "Point",
        "coordinates": [
          121.5563376,25.0620552
        ]
      }
    },
    {
      "type": "Feature",
      "properties": {
        "name": "臺北市松山區光復南路33巷口",
        "marker-color": "#eeaa00",
        "marker-symbol": "1",
        "line": "accident"
      },
      "geometry": {
        "type": "Point",
        "coordinates": [
          121.5578693,25.0467087
        ]
      }
    },
    {
      "type": "Feature",
      "properties": {
        "name": "臺北市松山區南京東路4段75巷口",
        "marker-color": "#eeaa00",
        "marker-symbol": "1",
        "line": "accident"
      },
      "geometry": {
        "type": "Point",
        "coordinates": [
          121.55371000000002,25.0527163
        ]
      }
    },
    {
      "type": "Feature",
      "properties": {
        "name": "臺北市松山區松河街28號",
        "marker-color": "#eeaa00",
        "marker-symbol": "1",
        "line": "accident"
      },
      "geometry": {
        "type": "Point",
        "coordinates": [
          121.57274669999993,25.0507586
        ]
      }
    },
    {
      "type": "Feature",
      "properties": {
        "name": "臺北市松山區敦化南路(口)市民大道 敦化南路",
        "marker-color": "#eeaa00",
        "marker-symbol": "1",
        "line": "accident"
      },
      "geometry": {
        "type": "Point",
        "coordinates": [
          121.54865519999998,25.0450148
        ]
      }
    },
    {
      "type": "Feature",
      "properties": {
        "name": "臺北市松山區民權東路3段160巷19弄口",
        "marker-color": "#eeaa00",
        "marker-symbol": "1",
        "line": "accident"
      },
      "geometry": {
        "type": "Point",
        "coordinates": [
          121.5488226,25.0594647
        ]
      }
    },
    {
      "type": "Feature",
      "properties": {
        "name": "臺北市松山區民生東路新東街(口)民生東路 新東街",
        "marker-color": "#eeaa00",
        "marker-symbol": "1",
        "line": "accident"
      },
      "geometry": {
        "type": "Point",
        "coordinates": [
          121.56222920000005,25.0589266
        ]
      }
    },
    {
      "type": "Feature",
      "properties": {
        "name": "臺北市松山區市民大道4段 微風廣場前",
        "marker-color": "#eeaa00",
        "marker-symbol": "1",
        "line": "accident"
      },
      "geometry": {
        "type": "Point",
        "coordinates": [
          121.55068570000003,25.0447752
        ]
      }
    },
    {
      "type": "Feature",
      "properties": {
        "name": "臺北市松山區復興北路地下道速限牌",
        "marker-color": "#eeaa00",
        "marker-symbol": "1",
        "line": "accident"
      },
      "geometry": {
        "type": "Point",
        "coordinates": [
          121.54436880000003,25.0687853
        ]
      }
    },
    {
      "type": "Feature",
      "properties": {
        "name": "臺北市松山區民權東路3段191巷31弄",
        "marker-color": "#eeaa00",
        "marker-symbol": "1",
        "line": "accident"
      },
      "geometry": {
        "type": "Point",
        "coordinates": [
          121.54726219999998,25.0633325
        ]
      }
    },
    {
      "type": "Feature",
      "properties": {
        "name": "臺北市松山區八德路東興路(口)八德路 東興路",
        "marker-color": "#eeaa00",
        "marker-symbol": "1",
        "line": "accident"
      },
      "geometry": {
        "type": "Point",
        "coordinates": [
          121.56888279999998,25.0493187
        ]
      }
    },
    {
      "type": "Feature",
      "properties": {
        "name": "臺北市松山區八德路3段155巷口",
        "marker-color": "#eeaa00",
        "marker-symbol": "1",
        "line": "accident"
      },
      "geometry": {
        "type": "Point",
        "coordinates": [
          121.55506549999996,25.0489218
        ]
      }
    },
    {
      "type": "Feature",
      "properties": {
        "name": "臺北市松山區八德路4段88號",
        "marker-color": "#eeaa00",
        "marker-symbol": "1",
        "line": "accident"
      },
      "geometry": {
        "type": "Point",
        "coordinates": [
          121.56044880000002,25.0483115
        ]
      }
    },
    {
      "type": "Feature",
      "properties": {
        "name": "臺北市松山區敦化北路155巷5號旁無名巷 敦化北路155巷",
        "marker-color": "#eeaa00",
        "marker-symbol": "1",
        "line": "accident"
      },
      "geometry": {
        "type": "Point",
        "coordinates": [
          121.55013499999995,25.054153
        ]
      }
    },
    {
      "type": "Feature",
      "properties": {
        "name": "臺北市松山區八德路2段424號",
        "marker-color": "#eeaa00",
        "marker-symbol": "1",
        "line": "accident"
      },
      "geometry": {
        "type": "Point",
        "coordinates": [
          121.54733899999997,25.0480541
        ]
      }
    },
    {
      "type": "Feature",
      "properties": {
        "name": "臺北市松山區南京東路5段291巷19弄口",
        "marker-color": "#eeaa00",
        "marker-symbol": "1",
        "line": "accident"
      },
      "geometry": {
        "type": "Point",
        "coordinates": [
          121.56728780000003,25.052391
        ]
      }
    },
    {
      "type": "Feature",
      "properties": {
        "name": "臺北市松山區八德路北寧路(口)八德路 北寧路",
        "marker-color": "#eeaa00",
        "marker-symbol": "1",
        "line": "accident"
      },
      "geometry": {
        "type": "Point",
        "coordinates": [
          121.55257940000001,25.0482319
        ]
      }
    },
    {
      "type": "Feature",
      "properties": {
        "name": "臺北市松山區市民大道4段113號",
        "marker-color": "#eeaa00",
        "marker-symbol": "1",
        "line": "accident"
      },
      "geometry": {
        "type": "Point",
        "coordinates": [
          121.54808090000006,25.0451052
        ]
      }
    },
    {
      "type": "Feature",
      "properties": {
        "name": "臺北市松山區復興北路北向南地下道",
        "marker-color": "#eeaa00",
        "marker-symbol": "1",
        "line": "accident"
      },
      "geometry": {
        "type": "Point",
        "coordinates": [
          121.56386210000005,25.0541591
        ]
      }
    },
    {
      "type": "Feature",
      "properties": {
        "name": "臺北市松山區光復北路16號",
        "marker-color": "#eeaa00",
        "marker-symbol": "1",
        "line": "accident"
      },
      "geometry": {
        "type": "Point",
        "coordinates": [
          121.5576489,25.0490742
        ]
      }
    },
    {
      "type": "Feature",
      "properties": {
        "name": "臺北市松山區復興北路375號",
        "marker-color": "#eeaa00",
        "marker-symbol": "1",
        "line": "accident"
      },
      "geometry": {
        "type": "Point",
        "coordinates": [
          121.54466230000003,25.0627371
        ]
      }
    },
    {
      "type": "Feature",
      "properties": {
        "name": "臺北市松山區民權東路3段160巷口",
        "marker-color": "#eeaa00",
        "marker-symbol": "1",
        "line": "accident"
      },
      "geometry": {
        "type": "Point",
        "coordinates": [
          121.54748410000002,25.0605062
        ]
      }
    },
    {
      "type": "Feature",
      "properties": {
        "name": "臺北市松山區南京東路敦化北路(口)南京東路 敦化北路",
        "marker-color": "#eeaa00",
        "marker-symbol": "1",
        "line": "accident"
      },
      "geometry": {
        "type": "Point",
        "coordinates": [
          121.5638103,25.0514944
        ]
      }
    },
    {
      "type": "Feature",
      "properties": {
        "name": "臺北市松山區八德路2段437巷",
        "marker-color": "#eeaa00",
        "marker-symbol": "1",
        "line": "accident"
      },
      "geometry": {
        "type": "Point",
        "coordinates": [
          121.54699260000007,25.049015
        ]
      }
    },
    {
      "type": "Feature",
      "properties": {
        "name": "臺北市松山區塔悠路健康路(口)塔悠路 健康路",
        "marker-color": "#eeaa00",
        "marker-symbol": "1",
        "line": "accident"
      },
      "geometry": {
        "type": "Point",
        "coordinates": [
          121.56936050000002,25.0576385
        ]
      }
    },
    {
      "type": "Feature",
      "properties": {
        "name": "臺北市松山區南京東路4段113號",
        "marker-color": "#eeaa00",
        "marker-symbol": "1",
        "line": "accident"
      },
      "geometry": {
        "type": "Point",
        "coordinates": [
          121.55482630000006,25.0518761
        ]
      }
    },
    {
      "type": "Feature",
      "properties": {
        "name": "臺北市松山區光復北路190巷口",
        "marker-color": "#eeaa00",
        "marker-symbol": "1",
        "line": "accident"
      },
      "geometry": {
        "type": "Point",
        "coordinates": [
          121.5543189,25.0545645
        ]
      }
    },
    {
      "type": "Feature",
      "properties": {
        "name": "臺北市松山區光復北路富錦街(口)光復北路 富錦街",
        "marker-color": "#eeaa00",
        "marker-symbol": "1",
        "line": "accident"
      },
      "geometry": {
        "type": "Point",
        "coordinates": [
          121.55582770000001,25.0550413
        ]
      }
    },
    {
      "type": "Feature",
      "properties": {
        "name": "臺北市松山區民生東路5段 民生東路5段36巷",
        "marker-color": "#eeaa00",
        "marker-symbol": "1",
        "line": "accident"
      },
      "geometry": {
        "type": "Point",
        "coordinates": [
          121.55698469999993,25.0584641
        ]
      }
    },
    {
      "type": "Feature",
      "properties": {
        "name": "臺北市松山區松山路(口)市民大道 松山路",
        "marker-color": "#eeaa00",
        "marker-symbol": "1",
        "line": "accident"
      },
      "geometry": {
        "type": "Point",
        "coordinates": [
          121.57781640000007,25.0497817
        ]
      }
    },
    {
      "type": "Feature",
      "properties": {
        "name": "臺北市松山區光復北路富錦街(口)光復北路 富錦街",
        "marker-color": "#eeaa00",
        "marker-symbol": "1",
        "line": "accident"
      },
      "geometry": {
        "type": "Point",
        "coordinates": [
          121.55582770000001,25.0550413
        ]
      }
    },
    {
      "type": "Feature",
      "properties": {
        "name": "臺北市松山區民生東路4段82號",
        "marker-color": "#eeaa00",
        "marker-symbol": "1",
        "line": "accident"
      },
      "geometry": {
        "type": "Point",
        "coordinates": [
          121.55312960000003,25.0578516
        ]
      }
    },
    {
      "type": "Feature",
      "properties": {
        "name": "臺北市松山區光復北路230巷",
        "marker-color": "#eeaa00",
        "marker-symbol": "1",
        "line": "accident"
      },
      "geometry": {
        "type": "Point",
        "coordinates": [
          121.55490340000006,25.0562288
        ]
      }
    },
    {
      "type": "Feature",
      "properties": {
        "name": "臺北市松山區民權東路3段140巷 民權東路3段106巷3弄口",
        "marker-color": "#eeaa00",
        "marker-symbol": "1",
        "line": "accident"
      },
      "geometry": {
        "type": "Point",
        "coordinates": [
          121.54491630000007,25.0620032
        ]
      }
    },
    {
      "type": "Feature",
      "properties": {
        "name": "臺北市松山區三民路三民路 新東街51巷",
        "marker-color": "#eeaa00",
        "marker-symbol": "1",
        "line": "accident"
      },
      "geometry": {
        "type": "Point",
        "coordinates": [
          121.56313750000004,25.0613831
        ]
      }
    },
    {
      "type": "Feature",
      "properties": {
        "name": "臺北市松山區民生東路4段64號",
        "marker-color": "#eeaa00",
        "marker-symbol": "1",
        "line": "accident"
      },
      "geometry": {
        "type": "Point",
        "coordinates": [
          121.55202199999997,25.057816
        ]
      }
    },
    {
      "type": "Feature",
      "properties": {
        "name": "臺北市松山區八德路4段245巷56弄口",
        "marker-color": "#eeaa00",
        "marker-symbol": "1",
        "line": "accident"
      },
      "geometry": {
        "type": "Point",
        "coordinates": [
          121.56381379999993,25.0507822
        ]
      }
    },
    {
      "type": "Feature",
      "properties": {
        "name": "臺北市松山區民權東路3段140巷5號",
        "marker-color": "#eeaa00",
        "marker-symbol": "1",
        "line": "accident"
      },
      "geometry": {
        "type": "Point",
        "coordinates": [
          121.54673879999996,25.0613397
        ]
      }
    },
    {
      "type": "Feature",
      "properties": {
        "name": "臺北市松山區民生東路4段117號",
        "marker-color": "#eeaa00",
        "marker-symbol": "1",
        "line": "accident"
      },
      "geometry": {
        "type": "Point",
        "coordinates": [
          121.55327899999997,25.058252
        ]
      }
    },
    {
      "type": "Feature",
      "properties": {
        "name": "臺北市松山區延吉街23巷口",
        "marker-color": "#eeaa00",
        "marker-symbol": "1",
        "line": "accident"
      },
      "geometry": {
        "type": "Point",
        "coordinates": [
          121.55356840000002,25.046189
        ]
      }
    },
    {
      "type": "Feature",
      "properties": {
        "name": "臺北市松山區民權東路光復北路(口)民權東路 光復北路",
        "marker-color": "#eeaa00",
        "marker-symbol": "1",
        "line": "accident"
      },
      "geometry": {
        "type": "Point",
        "coordinates": [
          121.5563376,25.0620552
        ]
      }
    },
    {
      "type": "Feature",
      "properties": {
        "name": "臺北市松山區延壽街光復北路(口)延壽街 光復北路",
        "marker-color": "#eeaa00",
        "marker-symbol": "1",
        "line": "accident"
      },
      "geometry": {
        "type": "Point",
        "coordinates": [
          121.56195449999996,25.0567426
        ]
      }
    },
    {
      "type": "Feature",
      "properties": {
        "name": "臺北市松山區民權東路3段106巷 復興北路361巷",
        "marker-color": "#eeaa00",
        "marker-symbol": "1",
        "line": "accident"
      },
      "geometry": {
        "type": "Point",
        "coordinates": [
          121.54489149999995,25.0604568
        ]
      }
    },
    {
      "type": "Feature",
      "properties": {
        "name": "臺北市松山區八德路3段158巷口",
        "marker-color": "#eeaa00",
        "marker-symbol": "1",
        "line": "accident"
      },
      "geometry": {
        "type": "Point",
        "coordinates": [
          121.55529150000007,25.0463942
        ]
      }
    },
    {
      "type": "Feature",
      "properties": {
        "name": "臺北市松山區市民大道4段105號",
        "marker-color": "#eeaa00",
        "marker-symbol": "1",
        "line": "accident"
      },
      "geometry": {
        "type": "Point",
        "coordinates": [
          121.54808500000001,25.0451269
        ]
      }
    },
    {
      "type": "Feature",
      "properties": {
        "name": "臺北市松山區北寧路北寧路 南京東路4段52號",
        "marker-color": "#eeaa00",
        "marker-symbol": "1",
        "line": "accident"
      },
      "geometry": {
        "type": "Point",
        "coordinates": [
          121.5526625,25.0498761
        ]
      }
    },
    {
      "type": "Feature",
      "properties": {
        "name": "臺北市松山區民權東路撫遠街(口)民權東路 撫遠街",
        "marker-color": "#eeaa00",
        "marker-symbol": "1",
        "line": "accident"
      },
      "geometry": {
        "type": "Point",
        "coordinates": [
          121.5563376,25.0620552
        ]
      }
    },
    {
      "type": "Feature",
      "properties": {
        "name": "臺北市松山區長春路口(口)敦化北路120巷7弄 長春路口",
        "marker-color": "#eeaa00",
        "marker-symbol": "1",
        "line": "accident"
      },
      "geometry": {
        "type": "Point",
        "coordinates": [
          121.54802310000002,25.0544609
        ]
      }
    },
    {
      "type": "Feature",
      "properties": {
        "name": "臺北市松山區南京東路三民路(口)南京東路 三民路",
        "marker-color": "#eeaa00",
        "marker-symbol": "1",
        "line": "accident"
      },
      "geometry": {
        "type": "Point",
        "coordinates": [
          121.5638103,25.0514944
        ]
      }
    },
    {
      "type": "Feature",
      "properties": {
        "name": "臺北市松山區八德路4段東興路(口)八德路4段 東興路",
        "marker-color": "#eeaa00",
        "marker-symbol": "1",
        "line": "accident"
      },