{
  "type": "FeatureCollection",
  "crs": {
    "type": "name",
    "properties": {
      "name": "urn:ogc:def:crs:OGC:1.3:CRS84"
    }
  },
  "features": [
    {
      "type": "Feature",
      "properties": {
        "name": "臺北市大同區環河北路二段(北起敦煌路、南迄酒泉街)",
        "marker-color": "#ffaa22",
        "marker-symbol": "1",
        "line": "crime"
      },
      "geometry": {
        "type": "Point",
        "coordinates": [
          121.509279,25.070475

        ]
      }
    },
    {
      "type": "Feature",
      "properties": {
        "name": "臺北市萬華區康定路、桂林路口",
        "marker-color": "#ffaa22",
        "marker-symbol": "1",
        "line": "crime"
      },
      "geometry": {
        "type": "Point",
        "coordinates": [
          121.501765,25.038405

        ]
      }
    },
    {
      "type": "Feature",
      "properties": {
        "name": "臺北市萬華區艋舺公園",
        "marker-color": "#ffaa22",
        "marker-symbol": "1",
        "line": "crime"
      },
      "geometry": {
        "type": "Point",
        "coordinates": [
          121.499861,25.035978

        ]
      }
    },
    {
      "type": "Feature",
      "properties": {
        "name": "臺北市萬華區西寧南路62號路段",
        "marker-color": "#ffaa22",
        "marker-symbol": "1",
        "line": "crime"
      },
      "geometry": {
        "type": "Point",
        "coordinates": [
          121.506118,25.04381

        ]
      }
    },
    {
      "type": "Feature",
      "properties": {
        "name": "臺北市萬華區峨眉街28號路段",
        "marker-color": "#ffaa22",
        "marker-symbol": "1",
        "line": "crime"
      },
      "geometry": {
        "type": "Point",
        "coordinates": [
          121.506801,25.043492

        ]
      }
    },
    {
      "type": "Feature",
      "properties": {
        "name": "臺北市萬華區昆明街79號路段",
        "marker-color": "#ffaa22",
        "marker-symbol": "1",
        "line": "crime"
      },
      "geometry": {
        "type": "Point",
        "coordinates": [
          121.504996,25.042837

        ]
      }
    },
    {
      "type": "Feature",
      "properties": {
        "name": "臺北市萬華區406廣場(中華路2段及長沙街2段交叉口)",
        "marker-color": "#ffaa22",
        "marker-symbol": "1",
        "line": "crime"
      },
      "geometry": {
        "type": "Point",
        "coordinates": [
          121.497029,25.026286

        ]
      }
    },
    {
      "type": "Feature",
      "properties": {
        "name": "臺北市萬華區西藏路222號路段",
        "marker-color": "#ffaa22",
        "marker-symbol": "1",
        "line": "crime"
      },
      "geometry": {
        "type": "Point",
        "coordinates": [
          121.502272,25.029838

        ]
      }
    },
    {
      "type": "Feature",
      "properties": {
        "name": "臺北市萬華區寶興街80巷10號路段",
        "marker-color": "#ffaa22",
        "marker-symbol": "1",
        "line": "crime"
      },
      "geometry": {
        "type": "Point",
        "coordinates": [
          121.494067,25.02588

        ]
      }
    },
    {
      "type": "Feature",
      "properties": {
        "name": "臺北市萬華區水源路199號內藍球場路段",
        "marker-color": "#ffaa22",
        "marker-symbol": "1",
        "line": "crime"
      },
      "geometry": {
        "type": "Point",
        "coordinates": [
          121.507033,25.022269

        ]
      }
    },
    {
      "type": "Feature",
      "properties": {
        "name": "臺北市萬華區萬大路424巷97號旁三角公園路段",
        "marker-color": "#ffaa22",
        "marker-symbol": "1",
        "line": "crime"
      },
      "geometry": {
        "type": "Point",
        "coordinates": [
          121.495534,25.021103

        ]
      }
    },
    {
      "type": "Feature",
      "properties": {
        "name": "臺北市萬華區萬大路542號路段",
        "marker-color": "#ffaa22",
        "marker-symbol": "1",
        "line": "crime"
      },
      "geometry": {
        "type": "Point",
        "coordinates": [
          121.496481,25.018551

        ]
      }
    },
    {
      "type": "Feature",
      "properties": {
        "name": "臺北市萬華區老松公園",
        "marker-color": "#ffaa22",
        "marker-symbol": "1",
        "line": "crime"
      },
      "geometry": {
        "type": "Point",
        "coordinates": [
          121.50274,25.038372

        ]
      }
    },
    {
      "type": "Feature",
      "properties": {
        "name": "臺北市萬華區和平青草原(原402公園)(艋舺大道、西園路口)",
        "marker-color": "#ffaa22",
        "marker-symbol": "1",
        "line": "crime"
      },
      "geometry": {
        "type": "Point",
        "coordinates": [
          121.497029,25.026286

        ]
      }
    },
    {
      "type": "Feature",
      "properties": {
        "name": "臺北市萬華區南寧路48巷口",
        "marker-color": "#ffaa22",
        "marker-symbol": "1",
        "line": "crime"
      },
      "geometry": {
        "type": "Point",
        "coordinates": [
          121.504797,25.035036

        ]
      }
    },
    {
      "type": "Feature",
      "properties": {
        "name": "臺北市萬華區綠堤公園",
        "marker-color": "#ffaa22",
        "marker-symbol": "1",
        "line": "crime"
      },
      "geometry": {
        "type": "Point",
        "coordinates": [
          121.492661,25.03406

        ]
      }
    },
    {
      "type": "Feature",
      "properties": {
        "name": "臺北市中山區康樂公園",
        "marker-color": "#ffaa22",
        "marker-symbol": "1",
        "line": "crime"
      },
      "geometry": {
        "type": "Point",
        "coordinates": [
          121.524936,25.053086

        ]
      }
    },
    {
      "type": "Feature",
      "properties": {
        "name": "臺北市中山區民權東路1段70巷",
        "marker-color": "#ffaa22",
        "marker-symbol": "1",
        "line": "crime"
      },
      "geometry": {
        "type": "Point",
        "coordinates": [
          121.525037,25.061704

        ]
      }
    },
    {
      "type": "Feature",
      "properties": {
        "name": "臺北市中山區農安街、新生北路口",
        "marker-color": "#ffaa22",
        "marker-symbol": "1",
        "line": "crime"
      },
      "geometry": {
        "type": "Point",
        "coordinates": [
          121.522268,25.064899

        ]
      }
    },
    {
      "type": "Feature",
      "properties": {
        "name": "臺北市中山區松江路(捷運松江、南京站周邊)",
        "marker-color": "#ffaa22",
        "marker-symbol": "1",
        "line": "crime"
      },
      "geometry": {
        "type": "Point",
        "coordinates": [
          121.533073,25.051642

        ]
      }
    },
    {
      "type": "Feature",
      "properties": {
        "name": "臺北市中山區朱崙街(遼寧街至龍江路沿線)",
        "marker-color": "#ffaa22",
        "marker-symbol": "1",
        "line": "crime"
      },
      "geometry": {
        "type": "Point",
        "coordinates": [
          121.540949,25.050838

        ]
      }
    },
    {
      "type": "Feature",
      "properties": {
        "name": "臺北市中山區榮星公園",
        "marker-color": "#ffaa22",
        "marker-symbol": "1",
        "line": "crime"
      },
      "geometry": {
        "type": "Point",
        "coordinates": [
          121.539141,25.063467

        ]
      }
    },
    {
      "type": "Feature",
      "properties": {
        "name": "臺北市中山區濱江國小周邊",
        "marker-color": "#ffaa22",
        "marker-symbol": "1",
        "line": "crime"
      },
      "geometry": {
        "type": "Point",
        "coordinates": [
          121.542709,25.079202

        ]
      }
    },
    {
      "type": "Feature",
      "properties": {
        "name": "臺北市中山區中原街(吉林路236巷及218巷間段)",
        "marker-color": "#ffaa22",
        "marker-symbol": "1",
        "line": "crime"
      },
      "geometry": {
        "type": "Point",
        "coordinates": [
          121.528927,25.059808

        ]
      }
    },
    {
      "type": "Feature",
      "properties": {
        "name": "臺北市大安區建國南路1段63-1號附近(計程車休息站)",
        "marker-color": "#ffaa22",
        "marker-symbol": "1",
        "line": "crime"
      },
      "geometry": {
        "type": "Point",
        "coordinates": [
          121.537,25.0442

        ]
      }
    },
    {
      "type": "Feature",
      "properties": {
        "name": "臺北市大安區臨江街夜市",
        "marker-color": "#ffaa22",
        "marker-symbol": "1",
        "line": "crime"
      },
      "geometry": {
        "type": "Point",
        "coordinates": [
          121.556533,25.028232

        ]
      }
    },
    {
      "type": "Feature",
      "properties": {
        "name": "臺北市中正區中華路1段一帶",
        "marker-color": "#ffaa22",
        "marker-symbol": "1",
        "line": "crime"
      },
      "geometry": {
        "type": "Point",
        "coordinates": [
          121.508723,25.043056

        ]
      }
    },
    {
      "type": "Feature",
      "properties": {
        "name": "臺北市中正區濟南路2段一帶",
        "marker-color": "#ffaa22",
        "marker-symbol": "1",
        "line": "crime"
      },
      "geometry": {
        "type": "Point",
        "coordinates": [
          121.529677,25.04075

        ]
      }
    },
    {
      "type": "Feature",
      "properties": {
        "name": "臺北市中正區忠孝西路1段一帶(臺北火車站地下商店街)",
        "marker-color": "#ffaa22",
        "marker-symbol": "1",
        "line": "crime"
      },
      "geometry": {
        "type": "Point",
        "coordinates": [
          121.515957,25.046651

        ]
      }
    },
    {
      "type": "Feature",
      "properties": {
        "name": "臺北市中正區北平西路1段(捷運臺北站及公車臺北火車站周邊站牌)",
        "marker-color": "#ffaa22",
        "marker-symbol": "1",
        "line": "crime"
      },
      "geometry": {
        "type": "Point",
        "coordinates": [
          121.520353,25.047252

        ]
      }
    },
    {
      "type": "Feature",
      "properties": {
        "name": "臺北市中正區中山南路人行天橋、地下道",
        "marker-color": "#ffaa22",
        "marker-symbol": "1",
        "line": "crime"
      },
      "geometry": {
        "type": "Point",
        "coordinates": [
          121.518202,25.040419

        ]
      }
    },
    {
      "type": "Feature",
      "properties": {
        "name": "臺北市中正區中山南路1段一帶",
        "marker-color": "#ffaa22",
        "marker-symbol": "1",
        "line": "crime"
      },
      "geometry": {
        "type": "Point",
        "coordinates": [
          121.516868,25.03473

        ]
      }
    },
    {
      "type": "Feature",
      "properties": {
        "name": "臺北市中正區林森南路、仁愛路人行地下道",
        "marker-color": "#ffaa22",
        "marker-symbol": "1",
        "line": "crime"
      },
      "geometry": {
        "type": "Point",
        "coordinates": [
          121.521436,25.038504

        ]
      }
    },
    {
      "type": "Feature",
      "properties": {
        "name": "臺北市中正區寶慶路(中華路至桃源街)路段",
        "marker-color": "#ffaa22",
        "marker-symbol": "1",
        "line": "crime"
      },
      "geometry": {
        "type": "Point",
        "coordinates": [
          121.511232,25.041245

        ]
      }
    },
    {
      "type": "Feature",
      "properties": {
        "name": "臺北市中正區捷運公館1號出口",
        "marker-color": "#ffaa22",
        "marker-symbol": "1",
        "line": "crime"
      },
      "geometry": {
        "type": "Point",
        "coordinates": [
          121.53439,25.014483

        ]
      }
    },
    {
      "type": "Feature",
      "properties": {
        "name": "臺北市中正區客家文化園區",
        "marker-color": "#ffaa22",
        "marker-symbol": "1",
        "line": "crime"
      },
      "geometry": {
        "type": "Point",
        "coordinates": [
          121.36,24.941667

        ]
      }
    },
    {
      "type": "Feature",
      "properties": {
        "name": "臺北市中正區辛亥路1段12巷",
        "marker-color": "#ffaa22",
        "marker-symbol": "1",
        "line": "crime"
      },
      "geometry": {
        "type": "Point",
        "coordinates": [
          121.527395,25.019296

        ]
      }
    },
    {
      "type": "Feature",
      "properties": {
        "name": "臺北市中正區南昌路1段24巷內",
        "marker-color": "#ffaa22",
        "marker-symbol": "1",
        "line": "crime"
      },
      "geometry": {
        "type": "Point",
        "coordinates": [
          121.565427,25.032964

        ]
      }
    },
    {
      "type": "Feature",
      "properties": {
        "name": "臺北市中正區羅斯福路2段66巷",
        "marker-color": "#ffaa22",
        "marker-symbol": "1",
        "line": "crime"
      },
      "geometry": {
        "type": "Point",
        "coordinates": [
          121.521277,25.027423

        ]
      }
    },
    {
      "type": "Feature",
      "properties": {
        "name": "臺北市中正區和平西路、南昌路(南昌公園)",
        "marker-color": "#ffaa22",
        "marker-symbol": "1",
        "line": "crime"
      },
      "geometry": {
        "type": "Point",
        "coordinates": [
          121.51645,25.031077

        ]
      }
    },
    {
      "type": "Feature",
      "properties": {
        "name": "臺北市中正區南海路105號國盛國宅一帶",
        "marker-color": "#ffaa22",
        "marker-symbol": "1",
        "line": "crime"
      },
      "geometry": {
        "type": "Point",
        "coordinates": [
          121.507484,25.027592

        ]
      }
    },
    {
      "type": "Feature",
      "properties": {
        "name": "臺北市中正區寧波西街181巷內永寬公園",
        "marker-color": "#ffaa22",
        "marker-symbol": "1",
        "line": "crime"
      },
      "geometry": {
        "type": "Point",
        "coordinates": [
          121.510311,25.026517

        ]
      }
    },
    {
      "type": "Feature",
      "properties": {
        "name": "臺北市中正區廈門街至和平西路一帶",
        "marker-color": "#ffaa22",
        "marker-symbol": "1",
        "line": "crime"
      },
      "geometry": {
        "type": "Point",
        "coordinates": [
          121.565427,25.032964

        ]
      }
    },
    {
      "type": "Feature",
      "properties": {
        "name": "臺北市中正區延平南路一帶商家(和平西路愛國西路)",
        "marker-color": "#ffaa22",
        "marker-symbol": "1",
        "line": "crime"
      },
      "geometry": {
        "type": "Point",
        "coordinates": [
          121.508891,25.039716

        ]
      }
    },
    {
      "type": "Feature",
      "properties": {
        "name": "臺北市中正區寧波西街(泉州街至重慶南路)",
        "marker-color": "#ffaa22",
        "marker-symbol": "1",
        "line": "crime"
      },
      "geometry": {
        "type": "Point",
        "coordinates": [
          121.514214,25.02955

        ]
      }
    },
    {
      "type": "Feature",
      "properties": {
        "name": "臺北市松山區八德路4段106巷附近",
        "marker-color": "#ffaa22",
        "marker-symbol": "1",
        "line": "crime"
      },
      "geometry": {
        "type": "Point",
        "coordinates": [
          121.561073,25.047582

        ]
      }
    },
    {
      "type": "Feature",
      "properties": {
        "name": "臺北市松山區健康路325巷25弄附近",
        "marker-color": "#ffaa22",
        "marker-symbol": "1",
        "line": "crime"
      },
      "geometry": {
        "type": "Point",
        "coordinates": [
          121.566379,25.05644

        ]
      }
    },
    {
      "type": "Feature",
      "properties": {
        "name": "臺北市松山區松河街4號水門內",
        "marker-color": "#ffaa22",
        "marker-symbol": "1",
        "line": "crime"
      },
      "geometry": {
        "type": "Point",
        "coordinates": [
          121.571857,25.050903

        ]
      }
    },
    {
      "type": "Feature",
      "properties": {
        "name": "臺北市松山區松河街80幾號附近",
        "marker-color": "#ffaa22",
        "marker-symbol": "1",
        "line": "crime"
      },
      "geometry": {
        "type": "Point",
        "coordinates": [
          121.574675,25.050936

        ]
      }
    },
    {
      "type": "Feature",
      "properties": {
        "name": "臺北市松山區復興北路10幾號附近",
        "marker-color": "#ffaa22",
        "marker-symbol": "1",
        "line": "crime"
      },
      "geometry": {
        "type": "Point",
        "coordinates": [
          121.563862,25.054159

        ]
      }
    },
    {
      "type": "Feature",
      "properties": {
        "name": "臺北市松山區八德路2段346巷5弄附近",
        "marker-color": "#ffaa22",
        "marker-symbol": "1",
        "line": "crime"
      },
      "geometry": {
        "type": "Point",
        "coordinates": [
          121.545566,25.047133

        ]
      }
    },
    {
      "type": "Feature",
      "properties": {
        "name": "臺北市松山區敦化北路與八德路口地下道",
        "marker-color": "#ffaa22",
        "marker-symbol": "1",
        "line": "crime"
      },
      "geometry": {
        "type": "Point",
        "coordinates": [
          121.549225,25.055764

        ]
      }
    },
    {
      "type": "Feature",
      "properties": {
        "name": "臺北市松山區民生東路5段、撫遠街口",
        "marker-color": "#ffaa22",
        "marker-symbol": "1",
        "line": "crime"
      },
      "geometry": {
        "type": "Point",
        "coordinates": [
          121.568467,25.059237

        ]
      }
    },
    {
      "type": "Feature",
      "properties": {
        "name": "臺北市松山區南京東路5段147巷內(西松國小後門)",
        "marker-color": "#ffaa22",
        "marker-symbol": "1",
        "line": "crime"
      },
      "geometry": {
        "type": "Point",
        "coordinates": [
          121.562023,25.05275

        ]
      }
    },
    {
      "type": "Feature",
      "properties": {
        "name": "臺北市松山區復興北路231巷",
        "marker-color": "#ffaa22",
        "marker-symbol": "1",
        "line": "crime"
      },
      "geometry": {
        "type": "Point",
        "coordinates": [
          121.544775,25.057031

        ]
      }
    },
    {
      "type": "Feature",
      "properties": {
        "name": "臺北市信義區松隆路、永吉路30巷口",
        "marker-color": "#ffaa22",
        "marker-symbol": "1",
        "line": "crime"
      },
      "geometry": {
        "type": "Point",
        "coordinates": [
          121.568796,25.04454

        ]
      }
    },
    {
      "type": "Feature",
      "properties": {
        "name": "臺北市信義區永吉公園",
        "marker-color": "#ffaa22",
        "marker-symbol": "1",
        "line": "crime"
      },
      "geometry": {
        "type": "Point",
        "coordinates": [
          121.575012,25.043535

        ]
      }
    },
    {
      "type": "Feature",
      "properties": {
        "name": "臺北市信義區中強公園",
        "marker-color": "#ffaa22",
        "marker-symbol": "1",
        "line": "crime"
      },
      "geometry": {
        "type": "Point",
        "coordinates": [
          121.570114,25.030418

        ]
      }
    },
    {
      "type": "Feature",
      "properties": {
        "name": "臺北市信義區福德街251巷7弄周邊",
        "marker-color": "#ffaa22",
        "marker-symbol": "1",
        "line": "crime"
      },
      "geometry": {
        "type": "Point",
        "coordinates": [
          121.586324,25.037966

        ]
      }
    },
    {
      "type": "Feature",
      "properties": {
        "name": "臺北市信義區崇德街38巷內",
        "marker-color": "#ffaa22",
        "marker-symbol": "1",
        "line": "crime"
      },
      "geometry": {
        "type": "Point",
        "coordinates": [
          121.553916,25.024307

        ]
      }
    },
    {
      "type": "Feature",
      "properties": {
        "name": "臺北市士林區美崙街190號旁  (基河路底)",
        "marker-color": "#ffaa22",
        "marker-symbol": "1",
        "line": "crime"
      },
      "geometry": {
        "type": "Point",
        "coordinates": [
          121.517473,25.097155

        ]
      }
    },
    {
      "type": "Feature",
      "properties": {
        "name": "臺北市士林區延平北路6段308號",
        "marker-color": "#ffaa22",
        "marker-symbol": "1",
        "line": "crime"
      },
      "geometry": {
        "type": "Point",
        "coordinates": [
          121.502948,25.089812

        ]
      }
    },
    {
      "type": "Feature",
      "properties": {
        "name": "臺北市士林區三腳渡堤外 百齡右岸河濱公園",
        "marker-color": "#ffaa22",
        "marker-symbol": "1",
        "line": "crime"
      },
      "geometry": {
        "type": "Point",
        "coordinates": [
          121.524608,25.095049

        ]
      }
    },
    {
      "type": "Feature",
      "properties": {
        "name": "臺北市士林區忠誠路2段207巷內(運動公園周邊)",
        "marker-color": "#ffaa22",
        "marker-symbol": "1",
        "line": "crime"
      },
      "geometry": {
        "type": "Point",
        "coordinates": [
          121.535605,25.116446

        ]
      }
    },
    {
      "type": "Feature",
      "properties": {
        "name": "臺北市士林區忠誠公園",
        "marker-color": "#ffaa22",
        "marker-symbol": "1",
        "line": "crime"
      },
      "geometry": {
        "type": "Point",
        "coordinates": [
          121.525772,25.103558

        ]
      }
    },
    {
      "type": "Feature",
      "properties": {
        "name": "臺北市士林區永公路245巷34弄底6之6重劃區周邊",
        "marker-color": "#ffaa22",
        "marker-symbol": "1",
        "line": "crime"
      },
      "geometry": {
        "type": "Point",
        "coordinates": [
          121.560781,25.13326

        ]
      }
    },
    {
      "type": "Feature",
      "properties": {
        "name": "臺北市士林區至善路3段71巷",
        "marker-color": "#ffaa22",
        "marker-symbol": "1",
        "line": "crime"
      },
      "geometry": {
        "type": "Point",
        "coordinates": [
          121.569606,25.116964

        ]
      }
    },
    {
      "type": "Feature",
      "properties": {
        "name": "臺北市北投區中央北路4段583巷內",
        "marker-color": "#ffaa22",
        "marker-symbol": "1",
        "line": "crime"
      },
      "geometry": {
        "type": "Point",
        "coordinates": [
          121.466453,25.124979

        ]
      }
    },
    {
      "type": "Feature",
      "properties": {
        "name": "臺北市文山區指南路1段道南橋下(含指南路1段道南橋頭)",
        "marker-color": "#ffaa22",
        "marker-symbol": "1",
        "line": "crime"
      },
      "geometry": {
        "type": "Point",
        "coordinates": [
          121.565427,25.032964

        ]
      }
    },
    {
      "type": "Feature",
      "properties": {
        "name": "臺北市文山區木新路3段至寶橋下沿線河堤一帶",
        "marker-color": "#ffaa22",
        "marker-symbol": "1",
        "line": "crime"
      },
      "geometry": {
        "type": "Point",
        "coordinates": [
          121.559493,24.981444

        ]
      }
    },
    {
      "type": "Feature",
      "properties": {
        "name": "臺北市文山區木柵路1段1號至木柵路1段57號",
        "marker-color": "#ffaa22",
        "marker-symbol": "1",
        "line": "crime"
      },
      "geometry": {
        "type": "Point",
        "coordinates": [
          121.565427,25.032964

        ]
      }
    },
    {
      "type": "Feature",
      "properties": {
        "name": "臺北市文山區新光路1段118巷到道南橋下涵洞",
        "marker-color": "#ffaa22",
        "marker-symbol": "1",
        "line": "crime"
      },
      "geometry": {
        "type": "Point",
        "coordinates": [
          121.565427,25.032964

        ]
      }
    },
    {
      "type": "Feature",
      "properties": {
        "name": "臺北市文山區木柵路4段159巷14號至170弄口",
        "marker-color": "#ffaa22",
        "marker-symbol": "1",
        "line": "crime"
      },
      "geometry": {
        "type": "Point",
        "coordinates": [
          121.575404,25.000695

        ]
      }
    },
    {
      "type": "Feature",
      "properties": {
        "name": "臺北市文山區興德路66巷往萬美國宅階梯處",
        "marker-color": "#ffaa22",
        "marker-symbol": "1",
        "line": "crime"
      },
      "geometry": {
        "type": "Point",
        "coordinates": [
          121.55827,25.003636

        ]
      }
    },
    {
      "type": "Feature",
      "properties": {
        "name": "臺北市文山區萬芳醫院捷運站(興隆路3段111號)",
        "marker-color": "#ffaa22",
        "marker-symbol": "1",
        "line": "crime"
      },
      "geometry": {
        "type": "Point",
        "coordinates": [
          121.57125,24.992921

        ]
      }
    },
    {
      "type": "Feature",
      "properties": {
        "name": "臺北市文山區辛亥捷運站(辛亥路4段128號)",
        "marker-color": "#ffaa22",
        "marker-symbol": "1",
        "line": "crime"
      },
      "geometry": {
        "type": "Point",
        "coordinates": [
          121.565427,25.032964

        ]
      }
    },
    {
      "type": "Feature",
      "properties": {
        "name": "臺北市文山區基隆路四段與汀州路四段路口",
        "marker-color": "#ffaa22",
        "marker-symbol": "1",
        "line": "crime"
      },
      "geometry": {
        "type": "Point",
        "coordinates": [
          121.565427,25.032964

        ]
      }
    },
    {
      "type": "Feature",
      "properties": {
        "name": "臺北市文山區汀洲路四段88號（師大分部）後面",
        "marker-color": "#ffaa22",
        "marker-symbol": "1",
        "line": "crime"
      },
      "geometry": {
        "type": "Point",
        "coordinates": [
          121.535437,25.001009

        ]
      }
    },
    {
      "type": "Feature",
      "properties": {
        "name": "臺北市文山區羅斯福路6段401巷景美捷運站1號出口",
        "marker-color": "#ffaa22",
        "marker-symbol": "1",
        "line": "crime"
      },
      "geometry": {
        "type": "Point",
        "coordinates": [
          121.5408,24.992012

        ]
      }
    },
    {
      "type": "Feature",
      "properties": {
        "name": "臺北市文山區景行公園",
        "marker-color": "#ffaa22",
        "marker-symbol": "1",
        "line": "crime"
      },
      "geometry": {
        "type": "Point",
        "coordinates": [
          121.542829,24.992615

        ]
      }
    },
    {
      "type": "Feature",
      "properties": {
        "name": "臺北市內湖區內湖路三段60巷50弄",
        "marker-color": "#ffaa22",
        "marker-symbol": "1",
        "line": "crime"
      },
      "geometry": {
        "type": "Point",
        "coordinates": [
          121.592897,25.089274

        ]
      }
    },
    {
      "type": "Feature",
      "properties": {
        "name": "臺北市內湖區民權東路6段180巷",
        "marker-color": "#ffaa22",
        "marker-symbol": "1",
        "line": "crime"
      },
      "geometry": {
        "type": "Point",
        "coordinates": [
          121.592698,25.067659

        ]
      }
    },
    {
      "type": "Feature",
      "properties": {
        "name": "臺北市南港區忠孝東路6段2號(後山埤捷運站)",
        "marker-color": "#ffaa22",
        "marker-symbol": "1",
        "line": "crime"
      },
      "geometry": {
        "type": "Point",
        "coordinates": [
          121.611195,25.031235

        ]
      }
    },
    {
      "type": "Feature",
      "properties": {
        "name": "臺北市南港區南港路1段、興中路口(南興公園)",
        "marker-color": "#ffaa22",
        "marker-symbol": "1",
        "line": "crime"
      },
      "geometry": {
        "type": "Point",
        "coordinates": [
          121.607586,25.053958

        ]
      }
    },
    {
      "type": "Feature",
      "properties": {
        "name": "新北市三重區中正北路",
        "marker-color": "#ffaa22",
        "marker-symbol": "1",
        "line": "crime"
      },
      "geometry": {
        "type": "Point",
        "coordinates": [
          121.482995,25.067139

        ]
      }
    },
    {
      "type": "Feature",
      "properties": {
        "name": "新北市鶯歌區鶯桃路",
        "marker-color": "#ffaa22",
        "marker-symbol": "1",
        "line": "crime"
      },
      "geometry": {
        "type": "Point",
        "coordinates": [
          121.334039,24.961176

        ]
      }
    },
    {
      "type": "Feature",
      "properties": {
        "name": "新北市三峽區復興路",
        "marker-color": "#ffaa22",
        "marker-symbol": "1",
        "line": "crime"
      },
      "geometry": {
        "type": "Point",
        "coordinates": [
          121.365495,24.938871

        ]
      }
    },
    {
      "type": "Feature",
      "properties": {
        "name": "新北市土城區學府路一段",
        "marker-color": "#ffaa22",
        "marker-symbol": "1",
        "line": "crime"
      },
      "geometry": {
        "type": "Point",
        "coordinates": [
          121.454045,24.986493

        ]
      }
    },
    {
      "type": "Feature",
      "properties": {
        "name": "新北市中和區新生街",
        "marker-color": "#ffaa22",
        "marker-symbol": "1",
        "line": "crime"
      },
      "geometry": {
        "type": "Point",
        "coordinates": [
          121.483652,25.000699

        ]
      }
    },
    {
      "type": "Feature",
      "properties": {
        "name": "新北市中和區連城路",
        "marker-color": "#ffaa22",
        "marker-symbol": "1",
        "line": "crime"
      },
      "geometry": {
        "type": "Point",
        "coordinates": [
          121.487306,24.99624

        ]
      }
    },
    {
      "type": "Feature",
      "properties": {
        "name": "新北市中和區圓通路",
        "marker-color": "#ffaa22",
        "marker-symbol": "1",
        "line": "crime"
      },
      "geometry": {
        "type": "Point",
        "coordinates": [
          121.492562,24.990722

        ]
      }
    },
    {
      "type": "Feature",
      "properties": {
        "name": "新北市中和區錦和路",
        "marker-color": "#ffaa22",
        "marker-symbol": "1",
        "line": "crime"
      },
      "geometry": {
        "type": "Point",
        "coordinates": [
          121.489457,24.99763

        ]
      }
    },
    {
      "type": "Feature",
      "properties": {
        "name": "新北市永和區竹林路",
        "marker-color": "#ffaa22",
        "marker-symbol": "1",
        "line": "crime"
      },
      "geometry": {
        "type": "Point",
        "coordinates": [
          121.519767,25.011844

        ]
      }
    },
    {
      "type": "Feature",
      "properties": {
        "name": "新北市汐止區中興路",
        "marker-color": "#ffaa22",
        "marker-symbol": "1",
        "line": "crime"
      },
      "geometry": {
        "type": "Point",
        "coordinates": [
          121.632716,25.064369

        ]
      }
    },
    {
      "type": "Feature",
      "properties": {
        "name": "新北市淡水區水源路一段",
        "marker-color": "#ffaa22",
        "marker-symbol": "1",
        "line": "crime"
      },
      "geometry": {
        "type": "Point",
        "coordinates": [
          121.427152,25.176021

        ]
      }
    },
    {
      "type": "Feature",
      "properties": {
        "name": "新北市三芝區三民路",
        "marker-color": "#ffaa22",
        "marker-symbol": "1",
        "line": "crime"
      },
      "geometry": {
        "type": "Point",
        "coordinates": [
          121.504929,25.258707

        ]
      }
    },
    {
      "type": "Feature",
      "properties": {
        "name": "新北市淡水區中山北路二段",
        "marker-color": "#ffaa22",
        "marker-symbol": "1",
        "line": "crime"
      },
      "geometry": {
        "type": "Point",
        "coordinates": [
          121.444267,25.185344

        ]
      }
    },
    {
      "type": "Feature",
      "properties": {
        "name": "新北市新店區安業街",
        "marker-color": "#ffaa22",
        "marker-symbol": "1",
        "line": "crime"
      },
      "geometry": {
        "type": "Point",
        "coordinates": [
          121.524287,24.971049

        ]
      }
    },
    {
      "type": "Feature",
      "properties": {
        "name": "新北市新莊區新莊路",
        "marker-color": "#ffaa22",
        "marker-symbol": "1",
        "line": "crime"
      },
      "geometry": {
        "type": "Point",
        "coordinates": [
          121.450699,25.033642

        ]
      }
    },
    {
      "type": "Feature",
      "properties": {
        "name": "新北市新莊區福壽街",
        "marker-color": "#ffaa22",
        "marker-symbol": "1",
        "line": "crime"
      },
      "geometry": {
        "type": "Point",
        "coordinates": [
          121.458029,25.054

        ]
      }
    },
    {
      "type": "Feature",
      "properties": {
        "name": "新北市樹林區保安街二段",
        "marker-color": "#ffaa22",
        "marker-symbol": "1",
        "line": "crime"
      },
      "geometry": {
        "type": "Point",
        "coordinates": [
          121.414155,25.003699

        ]
      }
    },
    {
      "type": "Feature",
      "properties": {
        "name": "新北市樹林區啟智街",
        "marker-color": "#ffaa22",
        "marker-symbol": "1",
        "line": "crime"
      },
      "geometry": {
        "type": "Point",
        "coordinates": [
          121.418628,24.990141

        ]
      }
    },
    {
      "type": "Feature",
      "properties": {
        "name": "新北市樹林區復興路",
        "marker-color": "#ffaa22",
        "marker-symbol": "1",
        "line": "crime"
      },
      "geometry": {
        "type": "Point",
        "coordinates": [
          121.41859,24.988942

        ]
      }
    },
    {
      "type": "Feature",
      "properties": {
        "name": "新北市樹林區保安街一段",
        "marker-color": "#ffaa22",
        "marker-symbol": "1",
        "line": "crime"
      },
      "geometry": {
        "type": "Point",
        "coordinates": [
          121.422629,24.99521

        ]
      }
    },
    {
      "type": "Feature",
      "properties": {
        "name": "新北市蘆洲區民族路",
        "marker-color": "#ffaa22",
        "marker-symbol": "1",
        "line": "crime"
      },
      "geometry": {
        "type": "Point",
        "coordinates": [
          121.474558,25.091496

        ]
      }
    },
    {
      "type": "Feature",
      "properties": {
        "name": "新北市五股區五福路",
        "marker-color": "#ffaa22",
        "marker-symbol": "1",
        "line": "crime"
      },
      "geometry": {
        "type": "Point",
        "coordinates": [
          121.43353,25.089573

        ]
      }
    },
    {"geometry": {"type": "Point", "coordinates": [121.56948490000002, 25.0560185]}, "type": "Feature", "properties": {"injured": "2", "comment": "\u666e\u901a\u91cd\u578b-\u6a5f\u8eca;\u666e\u901a\u91cd\u578b-\u6a5f\u8eca\r", "marker-color": "#eeaa00", "marker-symbol": "1", "month": 1, "year": 2015, "date": 1, "line": "accident", "minute": 30, "death": "0", "name": "\u81fa\u5317\u5e02\u677e\u5c71\u5340\u5854\u60a0\u8def\u5854\u60a0\u8def 6\u865f\u6c34\u9580\u5167", "hour": 2}}, {"geometry": {"type": "Point", "coordinates": [121.55582770000001, 25.0550413]}, "type": "Feature", "properties": {"injured": "1", "comment": "\u8a08\u7a0b\u8eca-\u5c0f\u5ba2\u8eca;\u666e\u901a\u91cd\u578b-\u6a5f\u8eca\r", "marker-color": "#eeaa00", "marker-symbol": "1", "month": 1, "year": 2015, "date": 1, "line": "accident", "minute": 55, "death": "0", "name": "\u81fa\u5317\u5e02\u677e\u5c71\u5340\u5149\u5fa9\u5317\u8def(\u53e3)\u6c11\u6b0a\u6771\u8def4\u6bb5 \u5149\u5fa9\u5317\u8def", "hour": 5}}, {"geometry": {"type": "Point", "coordinates": [121.56718060000003, 25.0557517]}, "type": "Feature", "properties": {"injured": "1", "comment": "\u81ea\u7528-\u5c0f\u8ca8\u8eca;\u884c\u4eba-\u4eba\r", "marker-color": "#eeaa00", "marker-symbol": "1", "month": 1, "year": 2015, "date": 1, "line": "accident", "minute": 56, "death": "0", "name": "\u81fa\u5317\u5e02\u677e\u5c71\u5340\u5065\u5eb7\u8def325\u5df7\u53e3", "hour": 8}}, {"geometry": {"type": "Point", "coordinates": [121.56142669999997, 25.0590549]}, "type": "Feature", "properties": {"injured": "1", "comment": "\u8a08\u7a0b\u8eca-\u5c0f\u5ba2\u8eca;\u666e\u901a\u91cd\u578b-\u6a5f\u8eca\r", "marker-color": "#eeaa00", "marker-symbol": "1", "month": 1, "year": 2015, "date": 1, "line": "accident", "minute": 10, "death": "0", "name": "\u81fa\u5317\u5e02\u677e\u5c71\u5340\u65b0\u4e2d\u88578\u5df718\u865f", "hour": 23}}, {"geometry": {"type": "Point", "coordinates": [121.54711240000006, 25.0544933]}, "type": "Feature", "properties": {"injured": "2", "comment": "\u666e\u901a\u91cd\u578b-\u6a5f\u8eca;\u666e\u901a\u91cd\u578b-\u6a5f\u8eca\r", "marker-color": "#eeaa00", "marker-symbol": "1", "month": 1, "year": 2015, "date": 2, "line": "accident", "minute": 34, "death": "0", "name": "\u81fa\u5317\u5e02\u677e\u5c71\u5340\u9577\u6625\u8def\u5fa9\u8208\u5317\u8def(\u53e3)\u9577\u6625\u8def \u5fa9\u8208\u5317\u8def", "hour": 0}}, {"geometry": {"type": "Point", "coordinates": [121.54470609999998, 25.050206]}, "type": "Feature", "properties": {"injured": "1", "comment": "\u81ea\u7528-\u5c0f\u5ba2\u8eca;\u666e\u901a\u91cd\u578b-\u6a5f\u8eca\r", "marker-color": "#eeaa00", "marker-symbol": "1", "month": 1, "year": 2015, "date": 2, "line": "accident", "minute": 45, "death": "0", "name": "\u81fa\u5317\u5e02\u677e\u5c71\u5340\u5357\u4eac\u6771\u8def3\u6bb5256\u5df7\u53e3", "hour": 19}}, {"geometry": {"type": "Point", "coordinates": [121.55555700000002, 25.0575239]}, "type": "Feature", "properties": {"injured": "1", "comment": "\u8a08\u7a0b\u8eca-\u5c0f\u5ba2\u8eca;\u666e\u901a\u91cd\u578b-\u6a5f\u8eca\r", "marker-color": "#eeaa00", "marker-symbol": "1", "month": 1, "year": 2015, "date": 2, "line": "accident", "minute": 40, "death": "0", "name": "\u81fa\u5317\u5e02\u677e\u5c71\u5340\u5149\u5fa9\u5317\u8def169\u865f", "hour": 23}}, {"geometry": {"type": "Point", "coordinates": [121.54865519999998, 25.0450148]}, "type": "Feature", "properties": {"injured": "2", "comment": "\u81ea\u7528-\u5c0f\u5ba2\u8eca;\u666e\u901a\u91cd\u578b-\u6a5f\u8eca;\u666e\u901a\u91cd\u578b-\u6a5f\u8eca\r", "marker-color": "#eeaa00", "marker-symbol": "1", "month": 1, "year": 2015, "date": 3, "line": "accident", "minute": 42, "death": "0", "name": "\u81fa\u5317\u5e02\u677e\u5c71\u5340\u6566\u5316\u5357\u8def(\u53e3)\u5e02\u6c11\u5927\u9053 \u6566\u5316\u5357\u8def", "hour": 1}}, {"geometry": {"type": "Point", "coordinates": [121.56227139999999, 25.0626613]}, "type": "Feature", "properties": {"injured": "1", "comment": "\u666e\u901a\u91cd\u578b-\u6a5f\u8eca;\u81ea\u7528-\u5c0f\u5ba2\u8eca\r", "marker-color": "#eeaa00", "marker-symbol": "1", "month": 1, "year": 2015, "date": 3, "line": "accident", "minute": 38, "death": "0", "name": "\u81fa\u5317\u5e02\u677e\u5c71\u5340\u6c11\u6b0a\u6771\u8def4\u6bb5300\u865f\u524d\u516c\u8eca\u505c\u9760\u5340", "hour": 13}}, {"geometry": {"type": "Point", "coordinates": [121.55823499999997, 25.0526259]}, "type": "Feature", "properties": {"injured": "1", "comment": "\u81ea\u7528-\u5c0f\u5ba2\u8eca;\u81ea\u7528-\u5c0f\u5ba2\u8eca;\u81ea\u7528-\u5c0f\u5ba2\u8eca\r", "marker-color": "#eeaa00", "marker-symbol": "1", "month": 1, "year": 2015, "date": 3, "line": "accident", "minute": 30, "death": "0", "name": "\u81fa\u5317\u5e02\u677e\u5c71\u5340\u5357\u4eac\u6771\u8def5\u6bb559\u5df728\u5f04\u53e3", "hour": 15}}, {"geometry": {"type": "Point", "coordinates": [121.54922490000001, 25.0557638]}, "type": "Feature", "properties": {"injured": "2", "comment": "\u666e\u901a\u91cd\u578b-\u6a5f\u8eca;\u666e\u901a\u91cd\u578b-\u6a5f\u8eca\r", "marker-color": "#eeaa00", "marker-symbol": "1", "month": 1, "year": 2015, "date": 3, "line": "accident", "minute": 10, "death": "0", "name": "\u81fa\u5317\u5e02\u677e\u5c71\u5340\u6566\u5316\u5317\u8def\u6c11\u751f\u6771\u8def(\u53e3)\u6566\u5316\u5317\u8def \u6c11\u751f\u6771\u8def", "hour": 18}}, {"geometry": {"type": "Point", "coordinates": [121.56538460000002, 25.049821]}, "type": "Feature", "properties": {"injured": "1", "comment": "\u81ea\u7528-\u5c0f\u5ba2\u8eca;\u666e\u901a\u91cd\u578b-\u6a5f\u8eca\r", "marker-color": "#eeaa00", "marker-symbol": "1", "month": 1, "year": 2015, "date": 4, "line": "accident", "minute": 31, "death": "0", "name": "\u81fa\u5317\u5e02\u677e\u5c71\u5340\u6771\u8208\u8def\u6771\u8208\u8def \u6771\u8208\u8def15\u5df7", "hour": 11}}, {"geometry": {"type": "Point", "coordinates": [121.55923250000001, 25.0512633]}, "type": "Feature", "properties": {"injured": "1", "comment": "\u666e\u901a\u91cd\u578b-\u6a5f\u8eca;\u666e\u901a\u8f15\u578b-\u6a5f\u8eca\r", "marker-color": "#eeaa00", "marker-symbol": "1", "month": 1, "year": 2015, "date": 4, "line": "accident", "minute": 32, "death": "0", "name": "\u81fa\u5317\u5e02\u677e\u5c71\u5340\u5357\u4eac\u6771\u8def5\u6bb534\u865f", "hour": 15}}, {"geometry": {"type": "Point", "coordinates": [121.5630476, 25.0622615]}, "type": "Feature", "properties": {"injured": "1", "comment": "\u8a08\u7a0b\u8eca-\u5c0f\u5ba2\u8eca;\u666e\u901a\u91cd\u578b-\u6a5f\u8eca\r", "marker-color": "#eeaa00", "marker-symbol": "1", "month": 1, "year": 2015, "date": 4, "line": "accident", "minute": 33, "death": "0", "name": "\u81fa\u5317\u5e02\u677e\u5c71\u5340\u4e09\u6c11\u8def\u4e09\u6c11\u8def \u897f\u677e\u570b\u5c0f\u524d", "hour": 19}}, {"geometry": {"type": "Point", "coordinates": [121.55348249999997, 25.0446424]}, "type": "Feature", "properties": {"injured": "2", "comment": "\u666e\u901a\u91cd\u578b-\u6a5f\u8eca;\u666e\u901a\u91cd\u578b-\u6a5f\u8eca;\u81ea\u7528-\u5c0f\u5ba2\u8eca\r", "marker-color": "#eeaa00", "marker-symbol": "1", "month": 1, "year": 2015, "date": 4, "line": "accident", "minute": 51, "death": "0", "name": "\u81fa\u5317\u5e02\u677e\u5c71\u5340\u5e02\u6c11\u5927\u90534\u6bb5223\u865f", "hour": 22}}, {"geometry": {"type": "Point", "coordinates": [121.5600935, 25.0499461]}, "type": "Feature", "properties": {"injured": "1", "comment": "\u8a08\u7a0b\u8eca-\u5c0f\u5ba2\u8eca;\u666e\u901a\u91cd\u578b-\u6a5f\u8eca\r", "marker-color": "#eeaa00", "marker-symbol": "1", "month": 1, "year": 2015, "date": 5, "line": "accident", "minute": 35, "death": "0", "name": "\u81fa\u5317\u5e02\u677e\u5c71\u5340\u5149\u5fa9\u5317\u8def11\u5df7\u53e3", "hour": 10}}, {"geometry": {"type": "Point", "coordinates": [121.56673669999998, 25.0598048]}, "type": "Feature", "properties": {"injured": "1", "comment": "\u81ea\u7528-\u5c0f\u5ba2\u8eca;\u666e\u901a\u91cd\u578b-\u6a5f\u8eca;\u666e\u901a\u91cd\u578b-\u6a5f\u8eca;\u666e\u901a\u91cd\u578b-\u6a5f\u8eca\r", "marker-color": "#eeaa00", "marker-symbol": "1", "month": 1, "year": 2015, "date": 5, "line": "accident", "minute": 10, "death": "0", "name": "\u81fa\u5317\u5e02\u677e\u5c71\u5340\u65b0\u6771\u885730\u5df71\u865f", "hour": 14}}, {"geometry": {"type": "Point", "coordinates": [121.54922490000001, 25.0557638]}, "type": "Feature", "properties": {"injured": "1", "comment": "\u81ea\u7528-\u5c0f\u5ba2\u8eca;\u666e\u901a\u91cd\u578b-\u6a5f\u8eca\r", "marker-color": "#eeaa00", "marker-symbol": "1", "month": 1, "year": 2015, "date": 6, "line": "accident", "minute": 50, "death": "0", "name": "\u81fa\u5317\u5e02\u677e\u5c71\u5340\u6566\u5316\u5317\u8def\u6c11\u751f\u6771\u8def(\u53e3)\u6566\u5316\u5317\u8def \u6c11\u751f\u6771\u8def", "hour": 8}}, {"geometry": {"type": "Point", "coordinates": [121.55534669999997, 25.0514352]}, "type": "Feature", "properties": {"injured": "1", "comment": "\u666e\u901a\u91cd\u578b-\u6a5f\u8eca;\u81ea\u7528-\u5c0f\u5ba2\u8eca\r", "marker-color": "#eeaa00", "marker-symbol": "1", "month": 1, "year": 2015, "date": 6, "line": "accident", "minute": 2, "death": "0", "name": "\u81fa\u5317\u5e02\u677e\u5c71\u5340\u5357\u4eac\u6771\u8def4\u6bb5128\u865f", "hour": 9}}, {"geometry": {"type": "Point", "coordinates": [121.54933060000008, 25.0537573]}, "type": "Feature", "properties": {"injured": "1", "comment": "\u79df\u8cc3\u8eca-\u5c0f\u5ba2\u8eca;\u666e\u901a\u91cd\u578b-\u6a5f\u8eca\r", "marker-color": "#eeaa00", "marker-symbol": "1", "month": 1, "year": 2015, "date": 6, "line": "accident", "minute": 9, "death": "0", "name": "\u81fa\u5317\u5e02\u677e\u5c71\u5340\u6566\u5316\u5317\u8def143\u865f", "hour": 19}}, {"geometry": {"type": "Point", "coordinates": [121.5638103, 25.0514944]}, "type": "Feature", "properties": {"injured": "1", "comment": "\u666e\u901a\u91cd\u578b-\u6a5f\u8eca;\u666e\u901a\u91cd\u578b-\u6a5f\u8eca\r", "marker-color": "#eeaa00", "marker-symbol": "1", "month": 1, "year": 2015, "date": 7, "line": "accident", "minute": 36, "death": "0", "name": "\u81fa\u5317\u5e02\u677e\u5c71\u5340\u5357\u4eac\u6771\u8def\u6566\u5316\u5317\u8def(\u53e3)\u5357\u4eac\u6771\u8def \u6566\u5316\u5317\u8def", "hour": 8}}, {"geometry": {"type": "Point", "coordinates": [121.5566933, 25.0593733]}, "type": "Feature", "properties": {"injured": "1", "comment": "\u8a08\u7a0b\u8eca-\u5c0f\u5ba2\u8eca;\u8173\u8e0f\u81ea\u884c\u8eca-\u6162\u8eca\r", "marker-color": "#eeaa00", "marker-symbol": "1", "month": 1, "year": 2015, "date": 7, "line": "accident", "minute": 12, "death": "0", "name": "\u81fa\u5317\u5e02\u677e\u5c71\u5340\u6c11\u751f\u6771\u8def5\u6bb527\u5df7\u53e3", "hour": 10}}, {"geometry": {"type": "Point", "coordinates": [121.54593829999999, 25.0614952]}, "type": "Feature", "properties": {"injured": "1", "comment": "\u666e\u901a\u8f15\u578b-\u6a5f\u8eca;\u79df\u8cc3\u8eca-\u5c0f\u5ba2\u8eca\r", "marker-color": "#eeaa00", "marker-symbol": "1", "month": 1, "year": 2015, "date": 7, "line": "accident", "minute": 27, "death": "0", "name": "\u81fa\u5317\u5e02\u677e\u5c71\u5340\u6c11\u6b0a\u6771\u8def3\u6bb5106\u5df73\u5f0423\u865f", "hour": 11}}, {"geometry": {"type": "Point", "coordinates": [121.56545210000002, 25.0494093]}, "type": "Feature", "properties": {"injured": "2", "comment": "\u666e\u901a\u91cd\u578b-\u6a5f\u8eca;\u666e\u901a\u91cd\u578b-\u6a5f\u8eca\r", "marker-color": "#eeaa00", "marker-symbol": "1", "month": 1, "year": 2015, "date": 7, "line": "accident", "minute": 9, "death": "0", "name": "\u81fa\u5317\u5e02\u677e\u5c71\u5340\u516b\u5fb7\u8def4\u6bb5245\u5df7 \u6771\u8208\u8def2\u5df7\u53e3", "hour": 17}}, {"geometry": {"type": "Point", "coordinates": [121.56213600000001, 25.0487619]}, "type": "Feature", "properties": {"injured": "2", "comment": "\u8173\u8e0f\u81ea\u884c\u8eca-\u6162\u8eca;\u666e\u901a\u91cd\u578b-\u6a5f\u8eca\r", "marker-color": "#eeaa00", "marker-symbol": "1", "month": 1, "year": 2015, "date": 7, "line": "accident", "minute": 47, "death": "0", "name": "\u81fa\u5317\u5e02\u677e\u5c71\u5340\u516b\u5fb7\u8def4\u6bb5135\u865f", "hour": 17}}, {"geometry": {"type": "Point", "coordinates": [121.56235779999997, 25.054898]}, "type": "Feature", "properties": {"injured": "2", "comment": "\u666e\u901a\u91cd\u578b-\u6a5f\u8eca;\u81ea\u7528-\u5c0f\u5ba2\u8eca;\u666e\u901a\u91cd\u578b-\u6a5f\u8eca\r", "marker-color": "#eeaa00", "marker-symbol": "1", "month": 1, "year": 2015, "date": 7, "line": "accident", "minute": 23, "death": "0", "name": "\u81fa\u5317\u5e02\u677e\u5c71\u5340\u5065\u5eb7\u8def225\u5df7 \u5ef6\u58fd\u8857330\u5df717\u5f04", "hour": 18}}, {"geometry": {"type": "Point", "coordinates": [121.56888279999998, 25.0493187]}, "type": "Feature", "properties": {"injured": "1", "comment": "\u666e\u901a\u91cd\u578b-\u6a5f\u8eca;\u666e\u901a\u91cd\u578b-\u6a5f\u8eca;\u666e\u901a\u91cd\u578b-\u6a5f\u8eca\r", "marker-color": "#eeaa00", "marker-symbol": "1", "month": 1, "year": 2015, "date": 7, "line": "accident", "minute": 55, "death": "0", "name": "\u81fa\u5317\u5e02\u677e\u5c71\u5340\u516b\u5fb7\u8def\u57fa\u9686\u8def(\u53e3)\u516b\u5fb7\u8def \u57fa\u9686\u8def", "hour": 21}}, {"geometry": {"type": "Point", "coordinates": [121.57864159999997, 25.0495028]}, "type": "Feature", "properties": {"injured": "2", "comment": "\u666e\u901a\u91cd\u578b-\u6a5f\u8eca;\u666e\u901a\u91cd\u578b-\u6a5f\u8eca\r", "marker-color": "#eeaa00", "marker-symbol": "1", "month": 1, "year": 2015, "date": 7, "line": "accident", "minute": 19, "death": "0", "name": "\u81fa\u5317\u5e02\u677e\u5c71\u5340\u677e\u5c71\u8def\u677e\u5c71\u8def \u5e02\u6c11\u5927\u9053", "hour": 23}}, {"geometry": {"type": "Point", "coordinates": [121.54844530000003, 25.0455409]}, "type": "Feature", "properties": {"injured": "1", "comment": "\u79df\u8cc3\u8eca-\u5c0f\u5ba2\u8eca;\u666e\u901a\u91cd\u578b-\u6a5f\u8eca\r", "marker-color": "#eeaa00", "marker-symbol": "1", "month": 1, "year": 2015, "date": 8, "line": "accident", "minute": 50, "death": "0", "name": "\u81fa\u5317\u5e02\u677e\u5c71\u5340\u6566\u5316\u5357\u8def1\u6bb5108\u865f", "hour": 10}}, {"geometry": {"type": "Point", "coordinates": [121.55510000000004, 25.0505887]}, "type": "Feature", "properties": {"injured": "1", "comment": "\u666e\u901a\u91cd\u578b-\u6a5f\u8eca;\u81ea\u7528-\u5c0f\u5ba2\u8eca\r", "marker-color": "#eeaa00", "marker-symbol": "1", "month": 1, "year": 2015, "date": 9, "line": "accident", "minute": 8, "death": "0", "name": "\u81fa\u5317\u5e02\u677e\u5c71\u5340\u5357\u4eac\u6771\u8def4\u6bb5120\u5df7\u53e3", "hour": 13}}, {"geometry": {"type": "Point", "coordinates": [121.54423629999997, 25.0570327]}, "type": "Feature", "properties": {"injured": "1", "comment": "\u81ea\u7528-\u5c0f\u8ca8\u8eca;\u666e\u901a\u91cd\u578b-\u6a5f\u8eca\r", "marker-color": "#eeaa00", "marker-symbol": "1", "month": 1, "year": 2015, "date": 9, "line": "accident", "minute": 5, "death": "0", "name": "\u81fa\u5317\u5e02\u677e\u5c71\u5340\u5fa9\u8208\u5317\u8def\u6c11\u6b0a\u6771\u8def(\u53e3)\u5fa9\u8208\u5317\u8def \u6c11\u6b0a\u6771\u8def", "hour": 15}}, {"geometry": {"type": "Point", "coordinates": [121.56367139999998, 25.0522116]}, "type": "Feature", "properties": {"injured": "3", "comment": "\u884c\u4eba-\u4eba;\u666e\u901a\u91cd\u578b-\u6a5f\u8eca;\u81ea\u7528-\u5c0f\u5ba2\u8eca;\u666e\u901a\u91cd\u578b-\u6a5f\u8eca\r", "marker-color": "#eeaa00", "marker-symbol": "1", "month": 1, "year": 2015, "date": 9, "line": "accident", "minute": 0, "death": "0", "name": "\u81fa\u5317\u5e02\u677e\u5c71\u5340\u4e09\u6c11\u8def5\u865f(\u897f\u677e\u570b\u5c0f\u524d)", "hour": 20}}, {"geometry": {"type": "Point", "coordinates": [121.5563376, 25.0620552]}, "type": "Feature", "properties": {"injured": "3", "comment": "\u666e\u901a\u91cd\u578b-\u6a5f\u8eca;\u666e\u901a\u91cd\u578b-\u6a5f\u8eca;\u666e\u901a\u91cd\u578b-\u6a5f\u8eca\r", "marker-color": "#eeaa00", "marker-symbol": "1", "month": 1, "year": 2015, "date": 10, "line": "accident", "minute": 25, "death": "0", "name": "\u81fa\u5317\u5e02\u677e\u5c71\u5340\u6c11\u6b0a\u6771\u8def\u64ab\u9060\u8857(\u53e3)\u6c11\u6b0a\u6771\u8def \u64ab\u9060\u8857", "hour": 11}}, {"geometry": {"type": "Point", "coordinates": [121.55290450000007, 25.0544713]}, "type": "Feature", "properties": {"injured": "1", "comment": "\u666e\u901a\u91cd\u578b-\u6a5f\u8eca;\u8173\u8e0f\u81ea\u884c\u8eca-\u6162\u8eca\r", "marker-color": "#eeaa00", "marker-symbol": "1", "month": 1, "year": 2015, "date": 10, "line": "accident", "minute": 27, "death": "0", "name": "\u81fa\u5317\u5e02\u677e\u5c71\u5340\u5149\u5fa9\u5317\u8def190\u5df7 \u5065\u5eb7\u8def15\u5df7", "hour": 17}}, {"geometry": {"type": "Point", "coordinates": [121.56575829999997, 25.0600966]}, "type": "Feature", "properties": {"injured": "1", "comment": "\u81ea\u7528-\u5c0f\u5ba2\u8eca;\u666e\u901a\u91cd\u578b-\u6a5f\u8eca\r", "marker-color": "#eeaa00", "marker-symbol": "1", "month": 1, "year": 2015, "date": 12, "line": "accident", "minute": 25, "death": "0", "name": "\u81fa\u5317\u5e02\u677e\u5c71\u5340\u65b0\u6771\u8857(\u53e3)\u6c11\u751f\u6771\u8def5\u6bb5 \u65b0\u6771\u8857", "hour": 8}}, {"geometry": {"type": "Point", "coordinates": [121.57764450000002, 25.0507879]}, "type": "Feature", "properties": {"injured": "1", "comment": "\u666e\u901a\u91cd\u578b-\u6a5f\u8eca;\u666e\u901a\u91cd\u578b-\u6a5f\u8eca\r", "marker-color": "#eeaa00", "marker-symbol": "1", "month": 1, "year": 2015, "date": 12, "line": "accident", "minute": 33, "death": "0", "name": "\u81fa\u5317\u5e02\u677e\u5c71\u5340\u516b\u5fb7\u8def4\u6bb5758\u865f", "hour": 8}}, {"geometry": {"type": "Point", "coordinates": [121.5561262, 25.0481279]}, "type": "Feature", "properties": {"injured": "1", "comment": "\u666e\u901a\u91cd\u578b-\u6a5f\u8eca;\u666e\u901a\u91cd\u578b-\u6a5f\u8eca\r", "marker-color": "#eeaa00", "marker-symbol": "1", "month": 1, "year": 2015, "date": 12, "line": "accident", "minute": 25, "death": "0", "name": "\u81fa\u5317\u5e02\u677e\u5c71\u5340\u516b\u5fb7\u8def3\u6bb5197\u865f", "hour": 9}}, {"geometry": {"type": "Point", "coordinates": [121.56290009999998, 25.0538874]}, "type": "Feature", "properties": {"injured": "1", "comment": "\u81ea\u7528-\u5c0f\u8ca8\u8eca;\u666e\u901a\u91cd\u578b-\u6a5f\u8eca\r", "marker-color": "#eeaa00", "marker-symbol": "1", "month": 1, "year": 2015, "date": 12, "line": "accident", "minute": 12, "death": "0", "name": "\u81fa\u5317\u5e02\u677e\u5c71\u5340\u5065\u5eb7\u8def260\u865f", "hour": 13}}, {"geometry": {"type": "Point", "coordinates": [121.55362259999993, 25.0501161]}, "type": "Feature", "properties": {"injured": "1", "comment": "\u8a08\u7a0b\u8eca-\u5c0f\u5ba2\u8eca;\u666e\u901a\u91cd\u578b-\u6a5f\u8eca\r", "marker-color": "#eeaa00", "marker-symbol": "1", "month": 1, "year": 2015, "date": 12, "line": "accident", "minute": 15, "death": "0", "name": "\u81fa\u5317\u5e02\u677e\u5c71\u5340\u516b\u5fb7\u8def3\u6bb5110\u865f\u524d", "hour": 17}}, {"geometry": {"type": "Point", "coordinates": [121.55362259999993, 25.0501161]}, "type": "Feature", "properties": {"injured": "1", "comment": "\u666e\u901a\u91cd\u578b-\u6a5f\u8eca;\u8a08\u7a0b\u8eca-\u5c0f\u5ba2\u8eca\r", "marker-color": "#eeaa00", "marker-symbol": "1", "month": 1, "year": 2015, "date": 12, "line": "accident", "minute": 31, "death": "0", "name": "\u81fa\u5317\u5e02\u677e\u5c71\u5340\u516b\u5fb7\u8def3\u6bb5125\u865f\u524d", "hour": 17}}, {"geometry": {"type": "Point", "coordinates": [121.5474653, 25.0589492]}, "type": "Feature", "properties": {"injured": "1", "comment": "\u666e\u901a\u91cd\u578b-\u6a5f\u8eca;\u81ea\u7528-\u5c0f\u5ba2\u8eca\r", "marker-color": "#eeaa00", "marker-symbol": "1", "month": 1, "year": 2015, "date": 12, "line": "accident", "minute": 55, "death": "0", "name": "\u81fa\u5317\u5e02\u677e\u5c71\u5340\u6c11\u751f\u6771\u8def\u6566\u5316\u5317\u8def(\u53e3)\u6c11\u751f\u6771\u8def \u6566\u5316\u5317\u8def", "hour": 19}}, {"geometry": {"type": "Point", "coordinates": [121.55367750000005, 25.051581]}, "type": "Feature", "properties": {"injured": "1", "comment": "\u666e\u901a\u91cd\u578b-\u6a5f\u8eca;\u666e\u901a\u91cd\u578b-\u6a5f\u8eca\r", "marker-color": "#eeaa00", "marker-symbol": "1", "month": 1, "year": 2015, "date": 12, "line": "accident", "minute": 45, "death": "0", "name": "\u81fa\u5317\u5e02\u677e\u5c71\u5340\u5357\u4eac\u6771\u8def4\u6bb5 \u5317\u5be7\u8def \u5be7\u5b89\u8857\u4e4b\u9593", "hour": 20}}, {"geometry": {"type": "Point", "coordinates": [121.56521299999997, 25.049273]}, "type": "Feature", "properties": {"injured": "2", "comment": "\u8173\u8e0f\u81ea\u884c\u8eca-\u6162\u8eca;\u666e\u901a\u91cd\u578b-\u6a5f\u8eca;\u666e\u901a\u91cd\u578b-\u6a5f\u8eca\r", "marker-color": "#eeaa00", "marker-symbol": "1", "month": 1, "year": 2015, "date": 12, "line": "accident", "minute": 55, "death": "0", "name": "\u81fa\u5317\u5e02\u677e\u5c71\u5340\u6771\u8208\u8def16\u865f\u524d", "hour": 22}}, {"geometry": {"type": "Point", "coordinates": [121.5449499, 25.0478352]}, "type": "Feature", "properties": {"injured": "1", "comment": "\u81ea\u7528-\u5c0f\u8ca8\u8eca;\u884c\u4eba-\u4eba\r", "marker-color": "#eeaa00", "marker-symbol": "1", "month": 1, "year": 2015, "date": 12, "line": "accident", "minute": 10, "death": "0", "name": "\u81fa\u5317\u5e02\u677e\u5c71\u5340\u516b\u5fb7\u8def2\u6bb5\u6566\u5316\u5317\u8def(\u53e3)\u516b\u5fb7\u8def2\u6bb5 \u6566\u5316\u5317\u8def", "hour": 23}}, {"geometry": {"type": "Point", "coordinates": [121.55870860000005, 25.0467958]}, "type": "Feature", "properties": {"injured": "2", "comment": "\u8a08\u7a0b\u8eca-\u5c0f\u5ba2\u8eca;\u666e\u901a\u91cd\u578b-\u6a5f\u8eca;\u666e\u901a\u91cd\u578b-\u6a5f\u8eca\r", "marker-color": "#eeaa00", "marker-symbol": "1", "month": 1, "year": 2015, "date": 13, "line": "accident", "minute": 22, "death": "0", "name": "\u81fa\u5317\u5e02\u677e\u5c71\u5340\u5149\u5fa9\u5357\u8def33\u5df7", "hour": 7}}, {"geometry": {"type": "Point", "coordinates": [121.5563376, 25.0620552]}, "type": "Feature", "properties": {"injured": "1", "comment": "\u666e\u901a\u91cd\u578b-\u6a5f\u8eca;\u666e\u901a\u91cd\u578b-\u6a5f\u8eca\r", "marker-color": "#eeaa00", "marker-symbol": "1", "month": 1, "year": 2015, "date": 13, "line": "accident", "minute": 18, "death": "0", "name": "\u81fa\u5317\u5e02\u677e\u5c71\u5340\u6c11\u6b0a\u6771\u8def\u64ab\u9060\u8857(\u53e3)\u6c11\u6b0a\u6771\u8def \u64ab\u9060\u8857", "hour": 8}}, {"geometry": {"type": "Point", "coordinates": [121.56114619999994, 25.0483706]}, "type": "Feature", "properties": {"injured": "1", "comment": "\u71df\u696d\u7528-\u5927\u8ca8\u8eca;\u666e\u901a\u91cd\u578b-\u6a5f\u8eca\r", "marker-color": "#eeaa00", "marker-symbol": "1", "month": 1, "year": 2015, "date": 13, "line": "accident", "minute": 21, "death": "0", "name": "\u81fa\u5317\u5e02\u677e\u5c71\u5340\u516b\u5fb7\u8def4\u6bb5110\u865f", "hour": 15}}, {"geometry": {"type": "Point", "coordinates": [121.57185679999998, 25.050903]}, "type": "Feature", "properties": {"injured": "1", "comment": "\u666e\u901a\u91cd\u578b-\u6a5f\u8eca;\u666e\u901a\u91cd\u578b-\u6a5f\u8eca\r", "marker-color": "#eeaa00", "marker-symbol": "1", "month": 1, "year": 2015, "date": 13, "line": "accident", "minute": 15, "death": "0", "name": "\u81fa\u5317\u5e02\u677e\u5c71\u5340\u677e\u6cb3\u88573\u865f\u677e\u6cb3\u88573\u865f", "hour": 22}}, {"geometry": {"type": "Point", "coordinates": [121.54922490000001, 25.0557638]}, "type": "Feature", "properties": {"injured": "1", "comment": "\u666e\u901a\u91cd\u578b-\u6a5f\u8eca\r", "marker-color": "#eeaa00", "marker-symbol": "1", "month": 1, "year": 2015, "date": 13, "line": "accident", "minute": 55, "death": "0", "name": "\u81fa\u5317\u5e02\u677e\u5c71\u5340\u6566\u5316\u5317\u8def\u9577\u6625\u8def(\u53e3)\u6566\u5316\u5317\u8def \u9577\u6625\u8def", "hour": 23}}, {"geometry": {"type": "Point", "coordinates": [121.56386210000005, 25.0541591]}, "type": "Feature", "properties": {"injured": "1", "comment": "\u81ea\u7528-\u5c0f\u5ba2\u8eca;\u81ea\u7528-\u5c0f\u5ba2\u8eca;\u81ea\u7528-\u5c0f\u5ba2\u8eca\r", "marker-color": "#eeaa00", "marker-symbol": "1", "month": 1, "year": 2015, "date": 14, "line": "accident", "minute": 45, "death": "0", "name": "\u81fa\u5317\u5e02\u677e\u5c71\u5340\u74b0\u6771\u5feb\u901f\u9053\u8def", "hour": 10}}, {"geometry": {"type": "Point", "coordinates": [121.55373020000002, 25.0515221]}, "type": "Feature", "properties": {"injured": "1", "comment": "\u666e\u901a\u91cd\u578b-\u6a5f\u8eca;\u81ea\u7528-\u5c0f\u5ba2\u8eca;\u81ea\u7528-\u5c0f\u5ba2\u8eca\r", "marker-color": "#eeaa00", "marker-symbol": "1", "month": 1, "year": 2015, "date": 15, "line": "accident", "minute": 30, "death": "0", "name": "\u81fa\u5317\u5e02\u677e\u5c71\u5340\u5357\u4eac\u6771\u8def4\u6bb556\u865f", "hour": 8}}, {"geometry": {"type": "Point", "coordinates": [121.55192699999998, 25.0512959]}, "type": "Feature", "properties": {"injured": "2", "comment": "\u666e\u901a\u91cd\u578b-\u6a5f\u8eca;\u8a08\u7a0b\u8eca-\u5c0f\u5ba2\u8eca;\u666e\u901a\u91cd\u578b-\u6a5f\u8eca\r", "marker-color": "#eeaa00", "marker-symbol": "1", "month": 1, "year": 2015, "date": 15, "line": "accident", "minute": 6, "death": "0", "name": "\u81fa\u5317\u5e02\u677e\u5c71\u5340\u5357\u4eac\u6771\u8def4\u6bb58\u865f", "hour": 9}}, {"geometry": {"type": "Point", "coordinates": [121.55632220000007, 25.0474752]}, "type": "Feature", "properties": {"injured": "1", "comment": "\u79df\u8cc3\u8eca-\u5c0f\u5ba2\u8eca;\u666e\u901a\u8f15\u578b-\u6a5f\u8eca\r", "marker-color": "#eeaa00", "marker-symbol": "1", "month": 1, "year": 2015, "date": 15, "line": "accident", "minute": 25, "death": "0", "name": "\u81fa\u5317\u5e02\u677e\u5c71\u5340\u516b\u5fb7\u8def\u5149\u5fa9\u5357\u8def(\u53e3)\u516b\u5fb7\u8def \u5149\u5fa9\u5357\u8def", "hour": 12}}, {"geometry": {"type": "Point", "coordinates": [121.56428570000003, 25.0631782]}, "type": "Feature", "properties": {"injured": "1", "comment": "\u666e\u901a\u91cd\u578b-\u6a5f\u8eca;\u81ea\u7528-\u5c0f\u5ba2\u8eca\r", "marker-color": "#eeaa00", "marker-symbol": "1", "month": 1, "year": 2015, "date": 15, "line": "accident", "minute": 0, "death": "0", "name": "\u81fa\u5317\u5e02\u677e\u5c71\u5340\u6c11\u6b0a\u6771\u8def5\u6bb51\u865f", "hour": 18}}, {"geometry": {"type": "Point", "coordinates": [121.5578693, 25.0467087]}, "type": "Feature", "properties": {"injured": "1", "comment": "\u81ea\u7528-\u5c0f\u5ba2\u8eca;\u8173\u8e0f\u81ea\u884c\u8eca-\u6162\u8eca\r", "marker-color": "#eeaa00", "marker-symbol": "1", "month": 1, "year": 2015, "date": 15, "line": "accident", "minute": 0, "death": "0", "name": "\u81fa\u5317\u5e02\u677e\u5c71\u5340\u5149\u5fa9\u5357\u8def(\u53e3)\u5e02\u6c11\u5927\u9053 \u5149\u5fa9\u5357\u8def", "hour": 22}}, {"geometry": {"type": "Point", "coordinates": [121.55776459999993, 25.0481972]}, "type": "Feature", "properties": {"injured": "1", "comment": "\u666e\u901a\u91cd\u578b-\u6a5f\u8eca;\u8a08\u7a0b\u8eca-\u5c0f\u5ba2\u8eca\r", "marker-color": "#eeaa00", "marker-symbol": "1", "month": 1, "year": 2015, "date": 15, "line": "accident", "minute": 50, "death": "0", "name": "\u81fa\u5317\u5e02\u677e\u5c71\u5340\u5149\u5fa9\u5357\u8def32\u5df7 \u516b\u5fb7\u8def3\u6bb5106\u5df7", "hour": 22}}, {"geometry": {"type": "Point", "coordinates": [121.56222920000005, 25.0589266]}, "type": "Feature", "properties": {"injured": "1", "comment": "\u81ea\u7528-\u5c0f\u5ba2\u8eca;\u884c\u4eba-\u4eba\r", "marker-color": "#eeaa00", "marker-symbol": "1", "month": 1, "year": 2015, "date": 16, "line": "accident", "minute": 12, "death": "0", "name": "\u81fa\u5317\u5e02\u677e\u5c71\u5340\u6c11\u751f\u6771\u8def\u65b0\u6771\u8857(\u53e3)\u6c11\u751f\u6771\u8def \u65b0\u6771\u8857", "hour": 12}}, {"geometry": {"type": "Point", "coordinates": [121.56612610000002, 25.0623963]}, "type": "Feature", "properties": {"injured": "1", "comment": "\u666e\u901a\u91cd\u578b-\u6a5f\u8eca;\u81ea\u7528-\u5c0f\u5ba2\u8eca\r", "marker-color": "#eeaa00", "marker-symbol": "1", "month": 1, "year": 2015, "date": 16, "line": "accident", "minute": 54, "death": "0", "name": "\u81fa\u5317\u5e02\u677e\u5c71\u5340\u64ab\u9060\u8857\u5bcc\u9326\u8857(\u53e3)\u64ab\u9060\u8857 \u5bcc\u9326\u8857", "hour": 13}}, {"geometry": {"type": "Point", "coordinates": [121.57020609999995, 25.0531257]}, "type": "Feature", "properties": {"injured": "1", "comment": "\u8a08\u7a0b\u8eca-\u5c0f\u5ba2\u8eca;\u666e\u901a\u91cd\u578b-\u6a5f\u8eca\r", "marker-color": "#eeaa00", "marker-symbol": "1", "month": 1, "year": 2015, "date": 16, "line": "accident", "minute": 40, "death": "0", "name": "\u81fa\u5317\u5e02\u677e\u5c71\u5340\u5854\u60a0\u8def86\u865f\u524d", "hour": 14}}, {"geometry": {"type": "Point", "coordinates": [121.5638103, 25.0514944]}, "type": "Feature", "properties": {"injured": "1", "comment": "\u666e\u901a\u91cd\u578b-\u6a5f\u8eca;\u81ea\u7528-\u5c0f\u5ba2\u8eca\r", "marker-color": "#eeaa00", "marker-symbol": "1", "month": 1, "year": 2015, "date": 16, "line": "accident", "minute": 42, "death": "0", "name": "\u81fa\u5317\u5e02\u677e\u5c71\u5340\u5357\u4eac\u6771\u8def\u5149\u5fa9\u5317\u8def(\u53e3)\u5357\u4eac\u6771\u8def \u5149\u5fa9\u5317\u8def", "hour": 16}}, {"geometry": {"type": "Point", "coordinates": [121.55506549999996, 25.0489218]}, "type": "Feature", "properties": {"injured": "1", "comment": "\u666e\u901a\u91cd\u578b-\u6a5f\u8eca;\u81ea\u7528-\u5c0f\u5ba2\u8eca\r", "marker-color": "#eeaa00", "marker-symbol": "1", "month": 1, "year": 2015, "date": 16, "line": "accident", "minute": 18, "death": "0", "name": "\u81fa\u5317\u5e02\u677e\u5c71\u5340\u516b\u5fb7\u8def3\u6bb5155\u5df7\u53e3", "hour": 18}}, {"geometry": {"type": "Point", "coordinates": [121.54495650000001, 25.0471386]}, "type": "Feature", "properties": {"injured": "1", "comment": "\u666e\u901a\u91cd\u578b-\u6a5f\u8eca;\u8a08\u7a0b\u8eca-\u5c0f\u5ba2\u8eca\r", "marker-color": "#eeaa00", "marker-symbol": "1", "month": 1, "year": 2015, "date": 16, "line": "accident", "minute": 25, "death": "0", "name": "\u81fa\u5317\u5e02\u677e\u5c71\u5340\u516b\u5fb7\u8def2\u6bb5346\u5df7\u53e3", "hour": 18}}, {"geometry": {"type": "Point", "coordinates": [121.56603840000002, 25.063144]}, "type": "Feature", "properties": {"injured": "1", "comment": "\u666e\u901a\u91cd\u578b-\u6a5f\u8eca;\u81ea\u7528-\u5c0f\u8ca8\u8eca\r", "marker-color": "#eeaa00", "marker-symbol": "1", "month": 1, "year": 2015, "date": 16, "line": "accident", "minute": 35, "death": "0", "name": "\u81fa\u5317\u5e02\u677e\u5c71\u5340\u6c11\u6b0a\u6771\u8def\u6c11\u6b0a\u5927\u6a4b\u4e0b\u6a4b\u8655(\u6771\u5f80\u897f)", "hour": 18}}, {"geometry": {"type": "Point", "coordinates": [121.56386210000005, 25.0541591]}, "type": "Feature", "properties": {"injured": "2", "comment": "\u666e\u901a\u91cd\u578b-\u6a5f\u8eca;\u666e\u901a\u91cd\u578b-\u6a5f\u8eca\r", "marker-color": "#eeaa00", "marker-symbol": "1", "month": 1, "year": 2015, "date": 16, "line": "accident", "minute": 44, "death": "0", "name": "\u81fa\u5317\u5e02\u677e\u5c71\u5340\u677e\u6cb3\u8857\u4e2d\u5761\u5317\u8def(\u53e3)\u677e\u6cb3\u8857 \u4e2d\u5761\u5317\u8def", "hour": 18}}, {"geometry": {"type": "Point", "coordinates": [121.56888279999998, 25.0493187]}, "type": "Feature", "properties": {"injured": "1", "comment": "\u81ea\u7528-\u5c0f\u5ba2\u8eca;\u666e\u901a\u91cd\u578b-\u6a5f\u8eca\r", "marker-color": "#eeaa00", "marker-symbol": "1", "month": 1, "year": 2015, "date": 17, "line": "accident", "minute": 28, "death": "0", "name": "\u81fa\u5317\u5e02\u677e\u5c71\u5340\u516b\u5fb7\u8def\u6771\u8208\u8def(\u53e3)\u516b\u5fb7\u8def \u6771\u8208\u8def", "hour": 1}}, {"geometry": {"type": "Point", "coordinates": [121.56936050000002, 25.0576385]}, "type": "Feature", "properties": {"injured": "1", "comment": "\u81ea\u7528-\u5c0f\u5ba2\u8eca;\u666e\u901a\u91cd\u578b-\u6a5f\u8eca\r", "marker-color": "#eeaa00", "marker-symbol": "1", "month": 1, "year": 2015, "date": 17, "line": "accident", "minute": 35, "death": "0", "name": "\u81fa\u5317\u5e02\u677e\u5c71\u5340\u5854\u60a0\u8def\u5854\u60a0\u8def \u64ab\u9060\u8857255\u5df7", "hour": 13}}, {"geometry": {"type": "Point", "coordinates": [121.55804330000001, 25.0465751]}, "type": "Feature", "properties": {"injured": "2", "comment": "\u666e\u901a\u91cd\u578b-\u6a5f\u8eca;\u666e\u901a\u91cd\u578b-\u6a5f\u8eca\r", "marker-color": "#eeaa00", "marker-symbol": "1", "month": 1, "year": 2015, "date": 17, "line": "accident", "minute": 12, "death": "0", "name": "\u81fa\u5317\u5e02\u677e\u5c71\u5340\u5149\u5fa9\u5357\u8def35\u865f", "hour": 16}}, {"geometry": {"type": "Point", "coordinates": [121.56386210000005, 25.0541591]}, "type": "Feature", "properties": {"injured": "1", "comment": "\u8a08\u7a0b\u8eca-\u5c0f\u5ba2\u8eca;\u666e\u901a\u91cd\u578b-\u6a5f\u8eca\r", "marker-color": "#eeaa00", "marker-symbol": "1", "month": 1, "year": 2015, "date": 17, "line": "accident", "minute": 26, "death": "0", "name": "\u81fa\u5317\u5e02\u677e\u5c71\u5340\u5fa9\u8208\u5357\u8def1\u6bb523\u865f\u524d", "hour": 16}}, {"geometry": {"type": "Point", "coordinates": [121.55847160000008, 25.0488131]}, "type": "Feature", "properties": {"injured": "1", "comment": "\u8a08\u7a0b\u8eca-\u5c0f\u5ba2\u8eca;\u666e\u901a\u91cd\u578b-\u6a5f\u8eca\r", "marker-color": "#eeaa00", "marker-symbol": "1", "month": 1, "year": 2015, "date": 17, "line": "accident", "minute": 5, "death": "0", "name": "\u81fa\u5317\u5e02\u677e\u5c71\u5340\u516b\u5fb7\u8def4\u6bb538\u865f\u524d", "hour": 21}}, {"geometry": {"type": "Point", "coordinates": [121.55068570000003, 25.0447752]}, "type": "Feature", "properties": {"injured": "1", "comment": "\u666e\u901a\u91cd\u578b-\u6a5f\u8eca;\u81ea\u7528-\u5c0f\u5ba2\u8eca;\u81ea\u7528-\u5c0f\u5ba2\u8eca\r", "marker-color": "#eeaa00", "marker-symbol": "1", "month": 1, "year": 2015, "date": 17, "line": "accident", "minute": 55, "death": "0", "name": "\u81fa\u5317\u5e02\u677e\u5c71\u5340\u5e02\u6c11\u5927\u90534\u6bb5\u5fae\u98a8\u5ee3\u5834\u65c1", "hour": 21}}, {"geometry": {"type": "Point", "coordinates": [121.54907639999999, 25.0599803]}, "type": "Feature", "properties": {"injured": "1", "comment": "\u8a08\u7a0b\u8eca-\u5c0f\u5ba2\u8eca;\u666e\u901a\u91cd\u578b-\u6a5f\u8eca\r", "marker-color": "#eeaa00", "marker-symbol": "1", "month": 1, "year": 2015, "date": 18, "line": "accident", "minute": 30, "death": "0", "name": "\u81fa\u5317\u5e02\u677e\u5c71\u5340\u6566\u5316\u5317\u8def\u6566\u5316\u5317\u8def \u6566\u5316\u5317\u8def155\u5df7\u53e3", "hour": 16}}, {"geometry": {"type": "Point", "coordinates": [121.56612610000002, 25.0623963]}, "type": "Feature", "properties": {"injured": "1", "comment": "\u666e\u901a\u91cd\u578b-\u6a5f\u8eca;\u79df\u8cc3\u8eca-\u5c0f\u5ba2\u8eca\r", "marker-color": "#eeaa00", "marker-symbol": "1", "month": 1, "year": 2015, "date": 19, "line": "accident", "minute": 35, "death": "0", "name": "\u81fa\u5317\u5e02\u677e\u5c71\u5340\u64ab\u9060\u8857\u5bcc\u9326\u8857(\u53e3)\u64ab\u9060\u8857 \u5bcc\u9326\u8857", "hour": 14}}, {"geometry": {"type": "Point", "coordinates": [121.55614479999997, 25.0585481]}, "type": "Feature", "properties": {"injured": "2", "comment": "\u884c\u4eba-\u4eba;\u666e\u901a\u91cd\u578b-\u6a5f\u8eca\r", "marker-color": "#eeaa00", "marker-symbol": "1", "month": 1, "year": 2015, "date": 19, "line": "accident", "minute": 39, "death": "0", "name": "\u81fa\u5317\u5e02\u677e\u5c71\u5340\u6c11\u751f\u6771\u8def5\u6bb525\u865f", "hour": 17}}, {"geometry": {"type": "Point", "coordinates": [121.54519670000002, 25.063359]}, "type": "Feature", "properties": {"injured": "1", "comment": "\u666e\u901a\u91cd\u578b-\u6a5f\u8eca;\u81ea\u7528-\u5c0f\u5ba2\u8eca\r", "marker-color": "#eeaa00", "marker-symbol": "1", "month": 1, "year": 2015, "date": 19, "line": "accident", "minute": 14, "death": "0", "name": "\u81fa\u5317\u5e02\u677e\u5c71\u5340\u5fa9\u8208\u5317\u8def427\u5df7 \u6c11\u6b0a\u6771\u8def3\u6bb5103\u5df725\u5f04", "hour": 19}}, {"geometry": {"type": "Point", "coordinates": [121.55068570000003, 25.0447752]}, "type": "Feature", "properties": {"injured": "1", "comment": "\u8a08\u7a0b\u8eca-\u5c0f\u5ba2\u8eca;\u666e\u901a\u91cd\u578b-\u6a5f\u8eca\r", "marker-color": "#eeaa00", "marker-symbol": "1", "month": 1, "year": 2015, "date": 19, "line": "accident", "minute": 30, "death": "0", "name": "\u81fa\u5317\u5e02\u677e\u5c71\u5340\u5e02\u6c11\u5927\u90534\u6bb5", "hour": 19}}, {"geometry": {"type": "Point", "coordinates": [121.5681495, 25.0519326]}, "type": "Feature", "properties": {"injured": "1", "comment": "\u81ea\u7528-\u5c0f\u5ba2\u8eca;\u666e\u901a\u91cd\u578b-\u6a5f\u8eca\r", "marker-color": "#eeaa00", "marker-symbol": "1", "month": 1, "year": 2015, "date": 20, "line": "accident", "minute": 47, "death": "0", "name": "\u81fa\u5317\u5e02\u677e\u5c71\u5340\u5bf6\u6e05\u885730\u5df7", "hour": 8}}, {"geometry": {"type": "Point", "coordinates": [121.55582770000001, 25.0550413]}, "type": "Feature", "properties": {"injured": "1", "comment": "\u666e\u901a\u91cd\u578b-\u6a5f\u8eca;\u81ea\u7528-\u5c0f\u5ba2\u8eca\r", "marker-color": "#eeaa00", "marker-symbol": "1", "month": 1, "year": 2015, "date": 20, "line": "accident", "minute": 7, "death": "0", "name": "\u81fa\u5317\u5e02\u677e\u5c71\u5340\u5149\u5fa9\u5317\u8def\u5149\u5fa9\u5317\u8def \u5357\u4eac\u6771\u8def4\u6bb5179\u5df73\u5f04\u53e3", "hour": 9}}, {"geometry": {"type": "Point", "coordinates": [121.56170559999998, 25.0512527]}, "type": "Feature", "properties": {"injured": "1", "comment": "\u666e\u901a\u91cd\u578b-\u6a5f\u8eca;\u81ea\u7528-\u5c0f\u5ba2\u8eca\r", "marker-color": "#eeaa00", "marker-symbol": "1", "month": 1, "year": 2015, "date": 20, "line": "accident", "minute": 43, "death": "0", "name": "\u81fa\u5317\u5e02\u677e\u5c71\u5340\u5357\u4eac\u6771\u8def5\u6bb592\u865f", "hour": 9}}, {"geometry": {"type": "Point", "coordinates": [121.56707540000002, 25.060605]}, "type": "Feature", "properties": {"injured": "1", "comment": "\u81ea\u7528-\u5c0f\u5ba2\u8eca;\u666e\u901a\u91cd\u578b-\u6a5f\u8eca\r", "marker-color": "#eeaa00", "marker-symbol": "1", "month": 1, "year": 2015, "date": 20, "line": "accident", "minute": 19, "death": "0", "name": "\u81fa\u5317\u5e02\u677e\u5c71\u5340\u64ab\u9060\u8857255\u5df7\u53e3", "hour": 10}}, {"geometry": {"type": "Point", "coordinates": [121.5563376, 25.0620552]}, "type": "Feature", "properties": {"injured": "1", "comment": "\u81ea\u7528-\u5c0f\u5ba2\u8eca;\u666e\u901a\u91cd\u578b-\u6a5f\u8eca\r", "marker-color": "#eeaa00", "marker-symbol": "1", "month": 1, "year": 2015, "date": 20, "line": "accident", "minute": 40, "death": "0", "name": "\u81fa\u5317\u5e02\u677e\u5c71\u5340\u6c11\u6b0a\u6771\u8def\u6566\u5316\u5317\u8def(\u53e3)\u6c11\u6b0a\u6771\u8def \u6566\u5316\u5317\u8def", "hour": 14}}, {"geometry": {"type": "Point", "coordinates": [121.55976650000002, 25.0712686]}, "type": "Feature", "properties": {"injured": "1", "comment": "\u81ea\u7528-\u5c0f\u5ba2\u8eca;\u666e\u901a\u91cd\u578b-\u6a5f\u8eca;\u81ea\u7528-\u5c0f\u5ba2\u8eca\r", "marker-color": "#eeaa00", "marker-symbol": "1", "month": 1, "year": 2015, "date": 20, "line": "accident", "minute": 10, "death": "0", "name": "\u81fa\u5317\u5e02\u677e\u5c71\u5340\u6ff1\u6c5f\u8857862\u865f\u524d", "hour": 16}}, {"geometry": {"type": "Point", "coordinates": [121.56888279999998, 25.0493187]}, "type": "Feature", "properties": {"injured": "1", "comment": "\u79df\u8cc3\u8eca-\u5c0f\u5ba2\u8eca;\u666e\u901a\u91cd\u578b-\u6a5f\u8eca\r", "marker-color": "#eeaa00", "marker-symbol": "1", "month": 1, "year": 2015, "date": 20, "line": "accident", "minute": 13, "death": "0", "name": "\u81fa\u5317\u5e02\u677e\u5c71\u5340\u516b\u5fb7\u8def4\u6bb5\u5854\u60a0\u8def(\u53e3)\u516b\u5fb7\u8def4\u6bb5 \u5854\u60a0\u8def", "hour": 19}}, {"geometry": {"type": "Point", "coordinates": [121.56888279999998, 25.0493187]}, "type": "Feature", "properties": {"injured": "1", "comment": "\u79df\u8cc3\u8eca-\u5c0f\u5ba2\u8eca;\u81ea\u7528-\u5c0f\u5ba2\u8eca\r", "marker-color": "#eeaa00", "marker-symbol": "1", "month": 1, "year": 2015, "date": 21, "line": "accident", "minute": 11, "death": "0", "name": "\u81fa\u5317\u5e02\u677e\u5c71\u5340\u516b\u5fb7\u8def(\u53e3)\u5fa9\u8208\u5357\u8def1\u6bb5 \u516b\u5fb7\u8def", "hour": 9}}, {"geometry": {"type": "Point", "coordinates": [121.5563376, 25.0620552]}, "type": "Feature", "properties": {"injured": "1", "comment": "\u666e\u901a\u91cd\u578b-\u6a5f\u8eca;\u666e\u901a\u91cd\u578b-\u6a5f\u8eca\r", "marker-color": "#eeaa00", "marker-symbol": "1", "month": 1, "year": 2015, "date": 22, "line": "accident", "minute": 45, "death": "0", "name": "\u81fa\u5317\u5e02\u677e\u5c71\u5340\u6c11\u6b0a\u6771\u8def\u64ab\u9060\u8857(\u53e3)\u6c11\u6b0a\u6771\u8def \u64ab\u9060\u8857", "hour": 3}}, {"geometry": {"type": "Point", "coordinates": [121.55726879999997, 25.0514559]}, "type": "Feature", "properties": {"injured": "1", "comment": "\u81ea\u7528-\u5c0f\u5ba2\u8eca;\u666e\u901a\u91cd\u578b-\u6a5f\u8eca\r", "marker-color": "#eeaa00", "marker-symbol": "1", "month": 1, "year": 2015, "date": 22, "line": "accident", "minute": 40, "death": "0", "name": "\u81fa\u5317\u5e02\u677e\u5c71\u5340\u5357\u4eac\u6771\u8def5\u6bb5169\u865f\u524d", "hour": 7}}, {"geometry": {"type": "Point", "coordinates": [121.56483530000003, 25.0511914]}, "type": "Feature", "properties": {"injured": "1", "comment": "\u8a08\u7a0b\u8eca-\u5c0f\u5ba2\u8eca;\u666e\u901a\u91cd\u578b-\u6a5f\u8eca\r", "marker-color": "#eeaa00", "marker-symbol": "1", "month": 1, "year": 2015, "date": 22, "line": "accident", "minute": 13, "death": "0", "name": "\u81fa\u5317\u5e02\u677e\u5c71\u5340\u5357\u4eac\u6771\u8def5\u6bb5202\u865f\u4e4b1", "hour": 12}}, {"geometry": {"type": "Point", "coordinates": [121.56306999999993, 25.048192]}, "type": "Feature", "properties": {"injured": "1", "comment": "\u81ea\u7528-\u5c0f\u5ba2\u8eca;\u666e\u901a\u91cd\u578b-\u6a5f\u8eca\r", "marker-color": "#eeaa00", "marker-symbol": "1", "month": 1, "year": 2015, "date": 22, "line": "accident", "minute": 14, "death": "0", "name": "\u81fa\u5317\u5e02\u677e\u5c71\u5340\u6771\u5be7\u8def13\u865f", "hour": 12}}, {"geometry": {"type": "Point", "coordinates": [121.54447789999995, 25.0600742]}, "type": "Feature", "properties": {"injured": "1", "comment": "\u666e\u901a\u91cd\u578b-\u6a5f\u8eca;\u8173\u8e0f\u81ea\u884c\u8eca-\u6162\u8eca\r", "marker-color": "#eeaa00", "marker-symbol": "1", "month": 1, "year": 2015, "date": 22, "line": "accident", "minute": 52, "death": "0", "name": "\u81fa\u5317\u5e02\u677e\u5c71\u5340\u5fa9\u8208\u5317\u8def337\u865f", "hour": 13}}, {"geometry": {"type": "Point", "coordinates": [121.5452699, 25.0482501]}, "type": "Feature", "properties": {"injured": "1", "comment": "\u8a08\u7a0b\u8eca-\u5c0f\u5ba2\u8eca;\u666e\u901a\u91cd\u578b-\u6a5f\u8eca\r", "marker-color": "#eeaa00", "marker-symbol": "1", "month": 1, "year": 2015, "date": 22, "line": "accident", "minute": 30, "death": "0", "name": "\u81fa\u5317\u5e02\u677e\u5c71\u5340\u9577\u5b89\u6771\u8def\u5fa9\u8208\u5317\u8def(\u53e3)\u9577\u5b89\u6771\u8def \u5fa9\u8208\u5317\u8def", "hour": 22}}, {"geometry": {"type": "Point", "coordinates": [121.54423629999997, 25.0570327]}, "type": "Feature", "properties": {"injured": "1", "comment": "\u81ea\u7528-\u5c0f\u8ca8\u8eca;\u666e\u901a\u91cd\u578b-\u6a5f\u8eca\r", "marker-color": "#eeaa00", "marker-symbol": "1", "month": 1, "year": 2015, "date": 23, "line": "accident", "minute": 36, "death": "0", "name": "\u81fa\u5317\u5e02\u677e\u5c71\u5340\u5fa9\u8208\u5317\u8def\u5fa9\u8208\u5317\u8def \u5e02\u6c11\u5927\u9053", "hour": 0}}, {"geometry": {"type": "Point", "coordinates": [121.56386210000005, 25.0541591]}, "type": "Feature", "properties": {"injured": "3", "comment": "\u71df\u696d\u7528-\u5168\u806f\u7d50\u8eca;\u81ea\u7528-\u5927\u8ca8\u8eca;\u81ea\u7528-\u5927\u8ca8\u8eca;\u81ea\u7528-\u5927\u8ca8\u8eca;\u81ea\u7528-\u5c0f\u5ba2\u8eca\r", "marker-color": "#eeaa00", "marker-symbol": "1", "month": 1, "year": 2015, "date": 23, "line": "accident", "minute": 40, "death": "0", "name": "\u81fa\u5317\u5e02\u677e\u5c71\u5340\u570b\u9053\u4e00\u865f21\u516c\u91cc0\u516c\u5c3a\u8655\u5317\u5411\u5916\u5074\u8eca\u9053", "hour": 6}}, {"geometry": {"type": "Point", "coordinates": [121.5563376, 25.0620552]}, "type": "Feature", "properties": {"injured": "1", "comment": "\u8a08\u7a0b\u8eca-\u5c0f\u5ba2\u8eca;\u8173\u8e0f\u81ea\u884c\u8eca-\u6162\u8eca\r", "marker-color": "#eeaa00", "marker-symbol": "1", "month": 1, "year": 2015, "date": 23, "line": "accident", "minute": 55, "death": "0", "name": "\u81fa\u5317\u5e02\u677e\u5c71\u5340\u6c11\u6b0a\u6771\u8def\u6566\u5316\u5317\u8def(\u53e3)\u6c11\u6b0a\u6771\u8def \u6566\u5316\u5317\u8def", "hour": 10}}, {"geometry": {"type": "Point", "coordinates": [121.55582770000001, 25.0550413]}, "type": "Feature", "properties": {"injured": "1", "comment": "\u81ea\u7528-\u5c0f\u5ba2\u8eca;\u666e\u901a\u91cd\u578b-\u6a5f\u8eca\r", "marker-color": "#eeaa00", "marker-symbol": "1", "month": 1, "year": 2015, "date": 23, "line": "accident", "minute": 51, "death": "0", "name": "\u81fa\u5317\u5e02\u677e\u5c71\u5340\u5149\u5fa9\u5317\u8def\u5065\u5eb7\u8def(\u53e3)\u5149\u5fa9\u5317\u8def \u5065\u5eb7\u8def", "hour": 21}}, {"geometry": {"type": "Point", "coordinates": [121.55071329999998, 25.0466604]}, "type": "Feature", "properties": {"injured": "1", "comment": "\u81ea\u7528-\u5c0f\u8ca8\u8eca;\u666e\u901a\u8f15\u578b-\u6a5f\u8eca\r", "marker-color": "#eeaa00", "marker-symbol": "1", "month": 1, "year": 2015, "date": 24, "line": "accident", "minute": 40, "death": "0", "name": "\u81fa\u5317\u5e02\u677e\u5c71\u5340\u516b\u5fb7\u8def3\u6bb512\u5df7\u53e3", "hour": 11}}, {"geometry": {"type": "Point", "coordinates": [121.546244, 25.04734]}, "type": "Feature", "properties": {"injured": "2", "comment": "\u666e\u901a\u91cd\u578b-\u6a5f\u8eca;\u666e\u901a\u91cd\u578b-\u6a5f\u8eca\r", "marker-color": "#eeaa00", "marker-symbol": "1", "month": 1, "year": 2015, "date": 24, "line": "accident", "minute": 5, "death": "0", "name": "\u81fa\u5317\u5e02\u677e\u5c71\u5340\u516b\u5fb7\u8def2\u6bb5366\u5df715-7\u865f", "hour": 12}}, {"geometry": {"type": "Point", "coordinates": [121.5563376, 25.0620552]}, "type": "Feature", "properties": {"injured": "1", "comment": "\u8a08\u7a0b\u8eca-\u5c0f\u5ba2\u8eca;\u666e\u901a\u91cd\u578b-\u6a5f\u8eca\r", "marker-color": "#eeaa00", "marker-symbol": "1", "month": 1, "year": 2015, "date": 24, "line": "accident", "minute": 35, "death": "0", "name": "\u81fa\u5317\u5e02\u677e\u5c71\u5340\u6c11\u6b0a\u6771\u8def\u8207\u5149\u5fa9\u5317\u8def\u53e3(\u9644\u8fd1)", "hour": 12}}, {"geometry": {"type": "Point", "coordinates": [121.5563376, 25.0620552]}, "type": "Feature", "properties": {"injured": "1", "comment": "\u666e\u901a\u91cd\u578b-\u6a5f\u8eca;\u6c11\u71df\u516c\u8eca-\u5927\u5ba2\u8eca\r", "marker-color": "#eeaa00", "marker-symbol": "1", "month": 1, "year": 2015, "date": 24, "line": "accident", "minute": 36, "death": "0", "name": "\u81fa\u5317\u5e02\u677e\u5c71\u5340\u6c11\u6b0a\u6771\u8def\u6566\u5316\u5317\u8def(\u53e3)\u6c11\u6b0a\u6771\u8def \u6566\u5316\u5317\u8def", "hour": 17}}, {"geometry": {"type": "Point", "coordinates": [121.56888279999998, 25.0493187]}, "type": "Feature", "properties": {"injured": "1", "comment": "\u81ea\u7528-\u5c0f\u5ba2\u8eca;\u666e\u901a\u91cd\u578b-\u6a5f\u8eca\r", "marker-color": "#eeaa00", "marker-symbol": "1", "month": 1, "year": 2015, "date": 24, "line": "accident", "minute": 54, "death": "0", "name": "\u81fa\u5317\u5e02\u677e\u5c71\u5340\u516b\u5fb7\u8def\u5409\u7965\u8def(\u53e3)\u516b\u5fb7\u8def \u5409\u7965\u8def", "hour": 22}}, {"geometry": {"type": "Point", "coordinates": [121.56386210000005, 25.0541591]}, "type": "Feature", "properties": {"injured": "1", "comment": "\u81ea\u7528-\u5c0f\u5ba2\u8eca\r", "marker-color": "#eeaa00", "marker-symbol": "1", "month": 1, "year": 2015, "date": 24, "line": "accident", "minute": 31, "death": "0", "name": "\u81fa\u5317\u5e02\u677e\u5c71\u5340\u570b\u9053\u4e00\u865f20\u516c\u91cc500\u516c\u5c3a\u8655\u5317\u5411\u5916\u5074\u8def\u80a9\u8eca\u9053", "hour": 23}}, {"geometry": {"type": "Point", "coordinates": [121.56138280000005, 25.0539855]}, "type": "Feature", "properties": {"injured": "2", "comment": "\u8173\u8e0f\u81ea\u884c\u8eca-\u6162\u8eca;\u666e\u901a\u91cd\u578b-\u6a5f\u8eca\r", "marker-color": "#eeaa00", "marker-symbol": "1", "month": 1, "year": 2015, "date": 25, "line": "accident", "minute": 28, "death": "0", "name": "\u81fa\u5317\u5e02\u677e\u5c71\u5340\u5065\u5eb7\u8def\u4e09\u6c11\u8def(\u53e3)\u5065\u5eb7\u8def \u4e09\u6c11\u8def", "hour": 20}}, {"geometry": {"type": "Point", "coordinates": [121.56888279999998, 25.0493187]}, "type": "Feature", "properties": {"injured": "3", "comment": "\u666e\u901a\u91cd\u578b-\u6a5f\u8eca;\u884c\u4eba-\u4eba;\u666e\u901a\u91cd\u578b-\u6a5f\u8eca\r", "marker-color": "#eeaa00", "marker-symbol": "1", "month": 1, "year": 2015, "date": 25, "line": "accident", "minute": 42, "death": "0", "name": "\u81fa\u5317\u5e02\u677e\u5c71\u5340\u516b\u5fb7\u8def4\u6bb5\u6771\u8208\u8def(\u53e3)\u516b\u5fb7\u8def4\u6bb5 \u6771\u8208\u8def", "hour": 21}}, {"geometry": {"type": "Point", "coordinates": [121.5543189, 25.0545645]}, "type": "Feature", "properties": {"injured": "1", "comment": "\u666e\u901a\u91cd\u578b-\u6a5f\u8eca;\u666e\u901a\u91cd\u578b-\u6a5f\u8eca\r", "marker-color": "#eeaa00", "marker-symbol": "1", "month": 1, "year": 2015, "date": 26, "line": "accident", "minute": 20, "death": "0", "name": "\u81fa\u5317\u5e02\u677e\u5c71\u5340\u5149\u5fa9\u5317\u8def190\u5df7\u53e3", "hour": 0}}, {"geometry": {"type": "Point", "coordinates": [121.56078649999995, 25.0504676]}, "type": "Feature", "properties": {"injured": "1", "comment": "\u8a08\u7a0b\u8eca-\u5c0f\u5ba2\u8eca;\u666e\u901a\u91cd\u578b-\u6a5f\u8eca\r", "marker-color": "#eeaa00", "marker-symbol": "1", "month": 1, "year": 2015, "date": 26, "line": "accident", "minute": 51, "death": "0", "name": "\u81fa\u5317\u5e02\u677e\u5c71\u5340\u5357\u4eac\u6771\u8def5\u6bb566\u5df7", "hour": 13}}, {"geometry": {"type": "Point", "coordinates": [121.55071659999999, 25.0481928]}, "type": "Feature", "properties": {"injured": "1", "comment": "\u81ea\u7528-\u5c0f\u5ba2\u8eca;\u666e\u901a\u91cd\u578b-\u6a5f\u8eca\r", "marker-color": "#eeaa00", "marker-symbol": "1", "month": 1, "year": 2015, "date": 26, "line": "accident", "minute": 34, "death": "0", "name": "\u81fa\u5317\u5e02\u677e\u5c71\u5340\u516b\u5fb7\u8def3\u6bb58\u5df7 \u516b\u5fb7\u8def3\u6bb512\u5df752\u5f04", "hour": 14}}, {"geometry": {"type": "Point", "coordinates": [121.56222920000005, 25.0589266]}, "type": "Feature", "properties": {"injured": "2", "comment": "\u666e\u901a\u91cd\u578b-\u6a5f\u8eca;\u8a08\u7a0b\u8eca-\u5c0f\u5ba2\u8eca;\u666e\u901a\u91cd\u578b-\u6a5f\u8eca\r", "marker-color": "#eeaa00", "marker-symbol": "1", "month": 1, "year": 2015, "date": 26, "line": "accident", "minute": 47, "death": "0", "name": "\u81fa\u5317\u5e02\u677e\u5c71\u5340\u6c11\u751f\u6771\u8def\u5149\u5fa9\u5317\u8def(\u53e3)\u6c11\u751f\u6771\u8def \u5149\u5fa9\u5317\u8def", "hour": 15}}, {"geometry": {"type": "Point", "coordinates": [121.56229200000007, 25.0625251]}, "type": "Feature", "properties": {"injured": "1", "comment": "\u666e\u901a\u91cd\u578b-\u6a5f\u8eca;\u81ea\u7528-\u5c0f\u8ca8\u8eca\r", "marker-color": "#eeaa00", "marker-symbol": "1", "month": 1, "year": 2015, "date": 26, "line": "accident", "minute": 0, "death": "0", "name": "\u81fa\u5317\u5e02\u677e\u5c71\u5340\u6c11\u6b0a\u6771\u8def4\u6bb5200\u865f\u5c0d\u9762", "hour": 16}}, {"geometry": {"type": "Point", "coordinates": [121.56138280000005, 25.0539855]}, "type": "Feature", "properties": {"injured": "1", "comment": "\u666e\u901a\u91cd\u578b-\u6a5f\u8eca;\u884c\u4eba-\u4eba\r", "marker-color": "#eeaa00", "marker-symbol": "1", "month": 1, "year": 2015, "date": 26, "line": "accident", "minute": 15, "death": "0", "name": "\u81fa\u5317\u5e02\u677e\u5c71\u5340\u5065\u5eb7\u8def(\u53e3)\u5ef6\u58fd\u8857330\u5df7 \u5065\u5eb7\u8def", "hour": 18}}, {"geometry": {"type": "Point", "coordinates": [121.55847399999993, 25.048968]}, "type": "Feature", "properties": {"injured": "1", "comment": "\u666e\u901a\u91cd\u578b-\u6a5f\u8eca;\u81ea\u7528-\u5c0f\u5ba2\u8eca\r", "marker-color": "#eeaa00", "marker-symbol": "1", "month": 1, "year": 2015, "date": 27, "line": "accident", "minute": 37, "death": "0", "name": "\u81fa\u5317\u5e02\u677e\u5c71\u5340\u516b\u5fb7\u8def4\u6bb517\u5df7", "hour": 8}}, {"geometry": {"type": "Point", "coordinates": [121.54942900000003, 25.0530396]}, "type": "Feature", "properties": {"injured": "1", "comment": "\u5176\u4ed6\u8eca-\u5176\u4ed6\u8eca;\u666e\u901a\u91cd\u578b-\u6a5f\u8eca\r", "marker-color": "#eeaa00", "marker-symbol": "1", "month": 1, "year": 2015, "date": 27, "line": "accident", "minute": 5, "death": "0", "name": "\u81fa\u5317\u5e02\u677e\u5c71\u5340\u6566\u5316\u5317\u8def133\u865f\u524d", "hour": 9}}, {"geometry": {"type": "Point", "coordinates": [121.56078649999995, 25.0504676]}, "type": "Feature", "properties": {"injured": "1", "comment": "\u8a08\u7a0b\u8eca-\u5c0f\u5ba2\u8eca;\u666e\u901a\u91cd\u578b-\u6a5f\u8eca;\u8a08\u7a0b\u8eca-\u5c0f\u5ba2\u8eca\r", "marker-color": "#eeaa00", "marker-symbol": "1", "month": 1, "year": 2015, "date": 27, "line": "accident", "minute": 10, "death": "0", "name": "\u81fa\u5317\u5e02\u677e\u5c71\u5340\u5357\u4eac\u6771\u8def5\u6bb566\u5df7\u53e3", "hour": 15}}, {"geometry": {"type": "Point", "coordinates": [121.57726000000002, 25.0499073]}, "type": "Feature", "properties": {"injured": "1", "comment": "\u79df\u8cc3\u8eca-\u5c0f\u5ba2\u8eca;\u6c11\u71df\u516c\u8eca-\u5927\u5ba2\u8eca\r", "marker-color": "#eeaa00", "marker-symbol": "1", "month": 1, "year": 2015, "date": 27, "line": "accident", "minute": 20, "death": "0", "name": "\u81fa\u5317\u5e02\u677e\u5c71\u5340\u516b\u5fb7\u8def4\u6bb5692\u865f", "hour": 15}}, {"geometry": {"type": "Point", "coordinates": [121.57839030000002, 25.0424614]}, "type": "Feature", "properties": {"injured": "2", "comment": "\u666e\u901a\u91cd\u578b-\u6a5f\u8eca;\u666e\u901a\u91cd\u578b-\u6a5f\u8eca\r", "marker-color": "#eeaa00", "marker-symbol": "1", "month": 1, "year": 2015, "date": 27, "line": "accident", "minute": 13, "death": "0", "name": "\u81fa\u5317\u5e02\u677e\u5c71\u5340\u5fe0\u5b5d\u6771\u8def5\u6bb5790\u5df768\u5f04\u53e3", "hour": 18}}, {"geometry": {"type": "Point", "coordinates": [121.56097550000004, 25.0512618]}, "type": "Feature", "properties": {"injured": "1", "comment": "\u81ea\u7528-\u5c0f\u5ba2\u8eca;\u666e\u901a\u91cd\u578b-\u6a5f\u8eca\r", "marker-color": "#eeaa00", "marker-symbol": "1", "month": 1, "year": 2015, "date": 27, "line": "accident", "minute": 33, "death": "0", "name": "\u81fa\u5317\u5e02\u677e\u5c71\u5340\u5357\u4eac\u6771\u8def5\u6bb570\u865f", "hour": 18}}, {"geometry": {"type": "Point", "coordinates": [121.5677379, 25.0515715]}, "type": "Feature", "properties": {"injured": "1", "comment": "\u8a08\u7a0b\u8eca-\u5c0f\u5ba2\u8eca;\u666e\u901a\u91cd\u578b-\u6a5f\u8eca;\u666e\u901a\u91cd\u578b-\u6a5f\u8eca\r", "marker-color": "#eeaa00", "marker-symbol": "1", "month": 1, "year": 2015, "date": 28, "line": "accident", "minute": 5, "death": "0", "name": "\u81fa\u5317\u5e02\u677e\u5c71\u5340\u5357\u4eac\u6771\u8def5\u6bb5345\u865f", "hour": 3}}, {"geometry": {"type": "Point", "coordinates": [121.54726219999998, 25.0633325]}, "type": "Feature", "properties": {"injured": "1", "comment": "\u666e\u901a\u91cd\u578b-\u6a5f\u8eca;\u81ea\u7528-\u5c0f\u5ba2\u8eca\r", "marker-color": "#eeaa00", "marker-symbol": "1", "month": 1, "year": 2015, "date": 28, "line": "accident", "minute": 20, "death": "0", "name": "\u81fa\u5317\u5e02\u677e\u5c71\u5340\u6c11\u6b0a\u6771\u8def3\u6bb5191\u5df731\u5f04", "hour": 7}}, {"geometry": {"type": "Point", "coordinates": [121.54843670000002, 25.0461046]}, "type": "Feature", "properties": {"injured": "1", "comment": "\u666e\u901a\u91cd\u578b-\u6a5f\u8eca;\u81ea\u7528-\u5c0f\u5ba2\u8eca;\u5176\u4ed6\u8eca-\u5176\u4ed6\u8eca\r", "marker-color": "#eeaa00", "marker-symbol": "1", "month": 1, "year": 2015, "date": 28, "line": "accident", "minute": 38, "death": "0", "name": "\u81fa\u5317\u5e02\u677e\u5c71\u5340\u6566\u5316\u5357\u8def1\u6bb5102\u865f", "hour": 17}}, {"geometry": {"type": "Point", "coordinates": [121.55320959999995, 25.0446918]}, "type": "Feature", "properties": {"injured": "1", "comment": "\u8a08\u7a0b\u8eca-\u5c0f\u5ba2\u8eca;\u666e\u901a\u91cd\u578b-\u6a5f\u8eca\r", "marker-color": "#eeaa00", "marker-symbol": "1", "month": 1, "year": 2015, "date": 28, "line": "accident", "minute": 40, "death": "0", "name": "\u81fa\u5317\u5e02\u677e\u5c71\u5340\u5e02\u6c11\u5927\u90534\u6bb5217\u865f", "hour": 18}}, {"geometry": {"type": "Point", "coordinates": [121.5578693, 25.0467087]}, "type": "Feature", "properties": {"injured": "1", "comment": "\u666e\u901a\u91cd\u578b-\u6a5f\u8eca;\u666e\u901a\u91cd\u578b-\u6a5f\u8eca\r", "marker-color": "#eeaa00", "marker-symbol": "1", "month": 1, "year": 2015, "date": 28, "line": "accident", "minute": 55, "death": "0", "name": "\u81fa\u5317\u5e02\u677e\u5c71\u5340\u5149\u5fa9\u5357\u8def33\u5df7\u53e3", "hour": 18}}, {"geometry": {"type": "Point", "coordinates": [121.57518870000001, 25.0510704]}, "type": "Feature", "properties": {"injured": "3", "comment": "\u666e\u901a\u91cd\u578b-\u6a5f\u8eca;\u666e\u901a\u91cd\u578b-\u6a5f\u8eca;\u666e\u901a\u91cd\u578b-\u6a5f\u8eca\r", "marker-color": "#eeaa00", "marker-symbol": "1", "month": 1, "year": 2015, "date": 28, "line": "accident", "minute": 0, "death": "0", "name": "\u81fa\u5317\u5e02\u677e\u5c71\u5340\u677e\u6cb3\u8857\u677e\u6cb3\u8857 \u5357\u4eac\u6771\u8def5\u6bb5", "hour": 19}}, {"geometry": {"type": "Point", "coordinates": [121.56936050000002, 25.0576385]}, "type": "Feature", "properties": {"injured": "1", "comment": "\u666e\u901a\u91cd\u578b-\u6a5f\u8eca;\u81ea\u7528-\u5c0f\u5ba2\u8eca\r", "marker-color": "#eeaa00", "marker-symbol": "1", "month": 1, "year": 2015, "date": 29, "line": "accident", "minute": 41, "death": "0", "name": "\u81fa\u5317\u5e02\u677e\u5c71\u5340\u5854\u60a0\u8def\u6c11\u6b0a\u6771\u8def(\u53e3)\u5854\u60a0\u8def \u6c11\u6b0a\u6771\u8def", "hour": 8}}, {"geometry": {"type": "Point", "coordinates": [121.55487240000002, 25.0584759]}, "type": "Feature", "properties": {"injured": "1", "comment": "\u666e\u901a\u91cd\u578b-\u6a5f\u8eca;\u8a08\u7a0b\u8eca-\u5c0f\u5ba2\u8eca\r", "marker-color": "#eeaa00", "marker-symbol": "1", "month": 1, "year": 2015, "date": 29, "line": "accident", "minute": 44, "death": "0", "name": "\u81fa\u5317\u5e02\u677e\u5c71\u5340\u6c11\u751f\u6771\u8def4\u6bb5133\u865f\u65c1", "hour": 13}}, {"geometry": {"type": "Point", "coordinates": [121.54914559999997, 25.0481906]}, "type": "Feature", "properties": {"injured": "2", "comment": "\u8173\u8e0f\u81ea\u884c\u8eca-\u6162\u8eca;\u666e\u901a\u91cd\u578b-\u6a5f\u8eca\r", "marker-color": "#eeaa00", "marker-symbol": "1", "month": 1, "year": 2015, "date": 29, "line": "accident", "minute": 48, "death": "0", "name": "\u81fa\u5317\u5e02\u677e\u5c71\u5340\u516b\u5fb7\u8def(\u53e3)\u6566\u5316\u5357\u8def1\u6bb5 \u516b\u5fb7\u8def", "hour": 17}}, {"geometry": {"type": "Point", "coordinates": [121.56222920000005, 25.0589266]}, "type": "Feature", "properties": {"injured": "1", "comment": "\u81ea\u7528-\u5c0f\u5ba2\u8eca;\u666e\u901a\u91cd\u578b-\u6a5f\u8eca\r", "marker-color": "#eeaa00", "marker-symbol": "1", "month": 1, "year": 2015, "date": 29, "line": "accident", "minute": 10, "death": "0", "name": "\u81fa\u5317\u5e02\u677e\u5c71\u5340\u6c11\u751f\u6771\u8def\u5149\u5fa9\u5317\u8def(\u53e3)\u6c11\u751f\u6771\u8def \u5149\u5fa9\u5317\u8def", "hour": 18}}, {"geometry": {"type": "Point", "coordinates": [121.5563376, 25.0620552]}, "type": "Feature", "properties": {"injured": "1", "comment": "\u666e\u901a\u91cd\u578b-\u6a5f\u8eca;\u666e\u901a\u91cd\u578b-\u6a5f\u8eca\r", "marker-color": "#eeaa00", "marker-symbol": "1", "month": 1, "year": 2015, "date": 29, "line": "accident", "minute": 0, "death": "0", "name": "\u81fa\u5317\u5e02\u677e\u5c71\u5340\u6c11\u6b0a\u6771\u8def\u4e09\u6c11\u8def(\u53e3)\u6c11\u6b0a\u6771\u8def \u4e09\u6c11\u8def", "hour": 20}}, {"geometry": {"type": "Point", "coordinates": [121.56888279999998, 25.0493187]}, "type": "Feature", "properties": {"injured": "1", "comment": "\u8a08\u7a0b\u8eca-\u5c0f\u5ba2\u8eca;\u5927\u578b\u91cd\u578b1-\u6a5f\u8eca\r", "marker-color": "#eeaa00", "marker-symbol": "1", "month": 1, "year": 2015, "date": 29, "line": "accident", "minute": 50, "death": "0", "name": "\u81fa\u5317\u5e02\u677e\u5c71\u5340\u516b\u5fb7\u8def\u6771\u8208\u8def(\u53e3)\u516b\u5fb7\u8def \u6771\u8208\u8def", "hour": 21}}, {"geometry": {"type": "Point", "coordinates": [121.56617060000008, 25.0529141]}, "type": "Feature", "properties": {"injured": "1", "comment": "\u666e\u901a\u91cd\u578b-\u6a5f\u8eca;\u81ea\u7528-\u5c0f\u8ca8\u8eca;\u6c11\u71df\u516c\u8eca-\u5927\u5ba2\u8eca\r", "marker-color": "#eeaa00", "marker-symbol": "1", "month": 1, "year": 2015, "date": 30, "line": "accident", "minute": 40, "death": "0", "name": "\u81fa\u5317\u5e02\u677e\u5c71\u5340\u5357\u4eac\u6771\u8def5\u6bb5291\u5df7\u53e3\u524d", "hour": 8}}, {"geometry": {"type": "Point", "coordinates": [121.56138280000005, 25.0539855]}, "type": "Feature", "properties": {"injured": "2", "comment": "\u666e\u901a\u91cd\u578b-\u6a5f\u8eca;\u666e\u901a\u91cd\u578b-\u6a5f\u8eca\r", "marker-color": "#eeaa00", "marker-symbol": "1", "month": 1, "year": 2015, "date": 30, "line": "accident", "minute": 27, "death": "0", "name": "\u81fa\u5317\u5e02\u677e\u5c71\u5340\u5065\u5eb7\u8def\u4e09\u6c11\u8def(\u53e3)\u5065\u5eb7\u8def \u4e09\u6c11\u8def", "hour": 18}}, {"geometry": {"type": "Point", "coordinates": [121.55007599999999, 25.0519269]}, "type": "Feature", "properties": {"injured": "2", "comment": "\u81ea\u7528-\u5c0f\u5ba2\u8eca;\u666e\u901a\u91cd\u578b-\u6a5f\u8eca;\u666e\u901a\u91cd\u578b-\u6a5f\u8eca\r", "marker-color": "#eeaa00", "marker-symbol": "1", "month": 1, "year": 2015, "date": 30, "line": "accident", "minute": 50, "death": "0", "name": "\u81fa\u5317\u5e02\u677e\u5c71\u5340\u5357\u4eac\u6771\u8def4\u6bb517\u865f", "hour": 18}}, {"geometry": {"type": "Point", "coordinates": [121.5638103, 25.0514944]}, "type": "Feature", "properties": {"injured": "2", "comment": "\u8a08\u7a0b\u8eca-\u5c0f\u5ba2\u8eca;\u666e\u901a\u91cd\u578b-\u6a5f\u8eca;\u666e\u901a\u91cd\u578b-\u6a5f\u8eca\r", "marker-color": "#eeaa00", "marker-symbol": "1", "month": 1, "year": 2015, "date": 30, "line": "accident", "minute": 35, "death": "0", "name": "\u81fa\u5317\u5e02\u677e\u5c71\u5340\u5357\u4eac\u6771\u8def\u4e09\u6c11\u8def(\u53e3)\u5357\u4eac\u6771\u8def \u4e09\u6c11\u8def", "hour": 19}}, {"geometry": {"type": "Point", "coordinates": [121.56534880000004, 25.0500861]}, "type": "Feature", "properties": {"injured": "1", "comment": "\u8a08\u7a0b\u8eca-\u5c0f\u5ba2\u8eca;\u666e\u901a\u91cd\u578b-\u6a5f\u8eca\r", "marker-color": "#eeaa00", "marker-symbol": "1", "month": 1, "year": 2015, "date": 30, "line": "accident", "minute": 39, "death": "0", "name": "\u81fa\u5317\u5e02\u677e\u5c71\u5340\u6771\u8208\u8def8\u865f\u6771\u8208\u8def8\u865f", "hour": 22}}, {"geometry": {"type": "Point", "coordinates": [121.54923899999994, 25.0543662]}, "type": "Feature", "properties": {"injured": "1", "comment": "\u81ea\u7528-\u5c0f\u5ba2\u8eca;\u8173\u8e0f\u81ea\u884c\u8eca-\u6162\u8eca\r", "marker-color": "#eeaa00", "marker-symbol": "1", "month": 1, "year": 2015, "date": 30, "line": "accident", "minute": 55, "death": "0", "name": "\u81fa\u5317\u5e02\u677e\u5c71\u5340\u6566\u5316\u5317\u8def165\u5df7 \u6566\u5316\u5317\u8def155\u5df7100\u5f04\u53e3", "hour": 22}}, {"geometry": {"type": "Point", "coordinates": [121.57185679999998, 25.050903]}, "type": "Feature", "properties": {"injured": "2", "comment": "\u666e\u901a\u91cd\u578b-\u6a5f\u8eca;\u666e\u901a\u91cd\u578b-\u6a5f\u8eca;\u8a08\u7a0b\u8eca-\u5c0f\u5ba2\u8eca\r", "marker-color": "#eeaa00", "marker-symbol": "1", "month": 1, "year": 2015, "date": 30, "line": "accident", "minute": 55, "death": "0", "name": "\u81fa\u5317\u5e02\u677e\u5c71\u5340\u677e\u6cb3\u88573\u865f\u677e\u6cb3\u88573\u865f", "hour": 22}}, {"geometry": {"type": "Point", "coordinates": [121.54610809999997, 25.0452727]}, "type": "Feature", "properties": {"injured": "2", "comment": "\u666e\u901a\u91cd\u578b-\u6a5f\u8eca;\u666e\u901a\u91cd\u578b-\u6a5f\u8eca;\u666e\u901a\u91cd\u578b-\u6a5f\u8eca\r", "marker-color": "#eeaa00", "marker-symbol": "1", "month": 1, "year": 2015, "date": 30, "line": "accident", "minute": 1, "death": "0", "name": "\u81fa\u5317\u5e02\u677e\u5c71\u5340\u5e02\u6c11\u5927\u90534\u6bb551\u865f", "hour": 23}}, {"geometry": {"type": "Point", "coordinates": [121.54807670000002, 25.0618179]}, "type": "Feature", "properties": {"injured": "2", "comment": "\u81ea\u7528-\u5c0f\u5ba2\u8eca;\u81ea\u7528-\u5c0f\u5ba2\u8eca\r", "marker-color": "#eeaa00", "marker-symbol": "1", "month": 1, "year": 2015, "date": 31, "line": "accident", "minute": 0, "death": "0", "name": "\u81fa\u5317\u5e02\u677e\u5c71\u5340\u6c11\u6b0a\u6771\u8def3\u6bb5162\u865f\u524d\u516c\u8eca\u505c\u9760\u5340", "hour": 8}}, {"geometry": {"type": "Point", "coordinates": [121.56362200000001, 25.0571115]}, "type": "Feature", "properties": {"injured": "1", "comment": "\u8a08\u7a0b\u8eca-\u5c0f\u5ba2\u8eca;\u666e\u901a\u91cd\u578b-\u6a5f\u8eca\r", "marker-color": "#eeaa00", "marker-symbol": "1", "month": 1, "year": 2015, "date": 31, "line": "accident", "minute": 0, "death": "0", "name": "\u81fa\u5317\u5e02\u677e\u5c71\u5340\u4e09\u6c11\u8def(\u53e3)\u6c11\u751f\u6771\u8def5\u6bb5 \u4e09\u6c11\u8def", "hour": 12}}, {"geometry": {"type": "Point", "coordinates": [121.56041690000006, 25.0597123]}, "type": "Feature", "properties": {"injured": "1", "comment": "\u81ea\u7528-\u5c0f\u8ca8\u8eca;\u666e\u901a\u91cd\u578b-\u6a5f\u8eca\r", "marker-color": "#eeaa00", "marker-symbol": "1", "month": 1, "year": 2015, "date": 31, "line": "accident", "minute": 10, "death": "0", "name": "\u81fa\u5317\u5e02\u677e\u5c71\u5340\u65b0\u4e2d\u8857\u5ef6\u58fd\u8857(\u53e3)\u65b0\u4e2d\u8857 \u5ef6\u58fd\u8857", "hour": 12}}, {"geometry": {"type": "Point", "coordinates": [121.56025669999997, 25.0614579]}, "type": "Feature", "properties": {"injured": "1", "comment": "\u666e\u901a\u91cd\u578b-\u6a5f\u8eca\r", "marker-color": "#eeaa00", "marker-symbol": "1", "month": 1, "year": 2015, "date": 31, "line": "accident", "minute": 5, "death": "0", "name": "\u81fa\u5317\u5e02\u677e\u5c71\u5340\u65b0\u4e2d\u885752\u5df7\u53e3", "hour": 16}}, {"geometry": {"type": "Point", "coordinates": [121.5474653, 25.0589492]},